[["20171017 07:33:55", [{"number": 42, "name": "SMITHFIELD NORTH", "address": "Smithfield North", "position": {"lat": 53.349562, "lng": -6.278198}, "banking": true, "bonus": false, "status": "OPEN", "contract_name": "Dublin", "bike_stands": 30, "available_bike_stands": 12, "available_bikes": 18, "last_update": 1508222004000}, {"number": 30, "name": "PARNELL SQUARE NORTH", "address": "Parnell Square North", "position": {"lat": 53.353462, "lng": -6.265305}, "banking": true, "bonus": false, "status": "OPEN", "contract_name": "Dublin", "bike_stands": 20, "available_bike_stands": 20, "available_bikes": 0, "last_update": 1508221904000}, {"number": 32, "name": "PEARSE STREET", "address": "Pearse Street", "position": {"lat": 53.344304, "lng": -6.250427}, "banking": true, "bonus": false, "status": "OPEN", "contract_name": "Dublin", "bike_stands": 30, "available_bike_stands": 15, "available_bikes": 15, "last_update": 1508221740000}, {"number": 48, "name": "EXCISE WALK", "address": "Excise Walk", "position": {"lat": 53.347777, "lng": -6.244239}, "banking": false, "bonus": false, "status": "OPEN", "contract_name": "Dublin", "bike_stands": 40, "available_bike_stands": 16, "available_bikes": 23, "last_update": 1508222005000}, {"number": 13, "name": "FITZWILLIAM SQUARE WEST", "address": "Fitzwilliam Square West", "position": {"lat": 53.336074, "lng": -6.252825}, "banking": false, "bonus": false, "status": "OPEN", "contract_name": "Dublin", "bike_stands": 30, "available_bike_stands": 29, "available_bikes": 1, "last_update": 1508221523000}, {"number": 81, "name": "ST. JAMES HOSPITAL (CENTRAL)", "address": "St. James Hospital (Central)", "position": {"lat": 53.339983, "lng": -6.295594}, "banking": false, "bonus": false, "status": "OPEN", "contract_name": "Dublin", "bike_stands": 40, "available_bike_stands": 36, "available_bikes": 4, "last_update": 1508221843000}, {"number": 68, "name": "HANOVER QUAY", "address": "Hanover Quay", "position": {"lat": 53.344115, "lng": -6.237153}, "banking": true, "bonus": false, "status": "OPEN", "contract_name": "Dublin", "bike_stands": 40, "available_bike_stands": 8, "available_bikes": 32, "last_update": 1508221834000}, {"number": 74, "name": "OLIVER BOND STREET", "address": "Oliver Bond Street", "position": {"lat": 53.343893, "lng": -6.280531}, "banking": false, "bonus": false, "status": "OPEN", "contract_name": "Dublin", "bike_stands": 30, "available_bike_stands": 30, "available_bikes": 0, "last_update": 1508221538000}, {"number": 87, "name": "COLLINS BARRACKS MUSEUM", "address": "Collins Barracks Museum", "position": {"lat": 53.347477, "lng": -6.28525}, "banking": true, "bonus": false, "status": "OPEN", "contract_name": "Dublin", "bike_stands": 38, "available_bike_stands": 35, "available_bikes": 3, "last_update": 1508221506000}, {"number": 84, "name": "BROOKFIELD ROAD", "address": "Brookfield Road", "position": {"lat": 53.339005, "lng": -6.300217}, "banking": false, "bonus": false, "status": "OPEN", "contract_name": "Dublin", "bike_stands": 30, "available_bike_stands": 17, "available_bikes": 13, "last_update": 1508221982000}, {"number": 54, "name": "CLONMEL STREET", "address": "Clonmel Street", "position": {"lat": 53.336021, "lng": -6.26298}, "banking": false, "bonus": false, "status": "OPEN", "contract_name": "Dublin", "bike_stands": 33, "available_bike_stands": 1, "available_bikes": 31, "last_update": 1508221776000}, {"number": 56, "name": "MOUNT STREET LOWER", "address": "Mount Street Lower", "position": {"lat": 53.33796, "lng": -6.24153}, "banking": false, "bonus": false, "status": "OPEN", "contract_name": "Dublin", "bike_stands": 40, "available_bike_stands": 37, "available_bikes": 2, "last_update": 1508221963000}, {"number": 6, "name": "CHRISTCHURCH PLACE", "address": "Christchurch Place", "position": {"lat": 53.343368, "lng": -6.27012}, "banking": false, "bonus": false, "status": "OPEN", "contract_name": "Dublin", "bike_stands": 20, "available_bike_stands": 6, "available_bikes": 14, "last_update": 1508221952000}, {"number": 18, "name": "GRANTHAM STREET", "address": "Grantham Street", "position": {"lat": 53.334123, "lng": -6.265436}, "banking": true, "bonus": false, "status": "OPEN", "contract_name": "Dublin", "bike_stands": 30, "available_bike_stands": 6, "available_bikes": 24, "last_update": 1508221994000}, {"number": 52, "name": "YORK STREET EAST", "address": "York Street East", "position": {"lat": 53.338755, "lng": -6.262003}, "banking": false, "bonus": false, "status": "OPEN", "contract_name": "Dublin", "bike_stands": 32, "available_bike_stands": 24, "available_bikes": 8, "last_update": 1508221755000}, {"number": 43, "name": "PORTOBELLO ROAD", "address": "Portobello Road", "position": {"lat": 53.330091, "lng": -6.268044}, "banking": true, "bonus": false, "status": "OPEN", "contract_name": "Dublin", "bike_stands": 30, "available_bike_stands": 7, "available_bikes": 23, "last_update": 1508221982000}, {"number": 31, "name": "PARNELL STREET", "address": "Parnell Street", "position": {"lat": 53.350929, "lng": -6.265125}, "banking": false, "bonus": false, "status": "OPEN", "contract_name": "Dublin", "bike_stands": 20, "available_bike_stands": 16, "available_bikes": 4, "last_update": 1508221917000}, {"number": 98, "name": "FREDERICK STREET SOUTH", "address": "Frederick Street South", "position": {"lat": 53.341515, "lng": -6.256853}, "banking": true, "bonus": false, "status": "OPEN", "contract_name": "Dublin", "bike_stands": 30, "available_bike_stands": 14, "available_bikes": 15, "last_update": 1508221442000}, {"number": 14, "name": "FOWNES STREET UPPER", "address": "Fownes Street Upper", "position": {"lat": 53.344603, "lng": -6.263371}, "banking": false, "bonus": false, "status": "OPEN", "contract_name": "Dublin", "bike_stands": 30, "available_bike_stands": 10, "available_bikes": 20, "last_update": 1508221886000}, {"number": 1, "name": "CLARENDON ROW", "address": "Clarendon Row", "position": {"lat": 53.340927, "lng": -6.262501}, "banking": false, "bonus": false, "status": "OPEN", "contract_name": "Dublin", "bike_stands": 31, "available_bike_stands": 5, "available_bikes": 26, "last_update": 1508222017000}, {"number": 23, "name": "CUSTOM HOUSE", "address": "Custom House", "position": {"lat": 53.348279, "lng": -6.254662}, "banking": true, "bonus": false, "status": "OPEN", "contract_name": "Dublin", "bike_stands": 30, "available_bike_stands": 21, "available_bikes": 8, "last_update": 1508221934000}, {"number": 90, "name": "BENSON STREET", "address": "Benson Street", "position": {"lat": 53.344153, "lng": -6.233451}, "banking": false, "bonus": false, "status": "OPEN", "contract_name": "Dublin", "bike_stands": 40, "available_bike_stands": 15, "available_bikes": 25, "last_update": 1508221920000}, {"number": 63, "name": "FENIAN STREET", "address": "Fenian Street", "position": {"lat": 53.341428, "lng": -6.24672}, "banking": false, "bonus": false, "status": "OPEN", "contract_name": "Dublin", "bike_stands": 35, "available_bike_stands": 21, "available_bikes": 14, "last_update": 1508221713000}, {"number": 91, "name": "SOUTH DOCK ROAD", "address": "South Dock Road", "position": {"lat": 53.341833, "lng": -6.231291}, "banking": false, "bonus": false, "status": "OPEN", "contract_name": "Dublin", "bike_stands": 30, "available_bike_stands": 25, "available_bikes": 5, "last_update": 1508221977000}, {"number": 67, "name": "THE POINT", "address": "The Point", "position": {"lat": 53.346867, "lng": -6.230852}, "banking": true, "bonus": false, "status": "OPEN", "contract_name": "Dublin", "bike_stands": 40, "available_bike_stands": 15, "available_bikes": 25, "last_update": 1508222008000}, {"number": 62, "name": "LIME STREET", "address": "Lime Street", "position": {"lat": 53.346026, "lng": -6.243576}, "banking": false, "bonus": false, "status": "OPEN", "contract_name": "Dublin", "bike_stands": 40, "available_bike_stands": 15, "available_bikes": 25, "last_update": 1508221896000}, {"number": 97, "name": "KILMAINHAM GAOL", "address": "Kilmainham Gaol", "position": {"lat": 53.342113, "lng": -6.310015}, "banking": true, "bonus": false, "status": "OPEN", "contract_name": "Dublin", "bike_stands": 40, "available_bike_stands": 31, "available_bikes": 9, "last_update": 1508221515000}, {"number": 49, "name": "GUILD STREET", "address": "Guild Street", "position": {"lat": 53.347932, "lng": -6.240928}, "banking": false, "bonus": false, "status": "OPEN", "contract_name": "Dublin", "bike_stands": 40, "available_bike_stands": 21, "available_bikes": 18, "last_update": 1508221927000}, {"number": 19, "name": "HERBERT PLACE", "address": "Herbert Place", "position": {"lat": 53.334432, "lng": -6.245575}, "banking": false, "bonus": false, "status": "OPEN", "contract_name": "Dublin", "bike_stands": 30, "available_bike_stands": 20, "available_bikes": 10, "last_update": 1508221955000}, {"number": 102, "name": "WESTERN WAY", "address": "Western Way", "position": {"lat": 53.354929, "lng": -6.269425}, "banking": false, "bonus": false, "status": "OPEN", "contract_name": "Dublin", "bike_stands": 40, "available_bike_stands": 40, "available_bikes": 0, "last_update": 1508221877000}, {"number": 53, "name": "NEWMAN HOUSE", "address": "Newman House", "position": {"lat": 53.337132, "lng": -6.26059}, "banking": false, "bonus": false, "status": "OPEN", "contract_name": "Dublin", "bike_stands": 40, "available_bike_stands": 35, "available_bikes": 5, "last_update": 1508221802000}, {"number": 101, "name": "KING STREET NORTH", "address": "King Street North", "position": {"lat": 53.350291, "lng": -6.273507}, "banking": false, "bonus": false, "status": "OPEN", "contract_name": "Dublin", "bike_stands": 30, "available_bike_stands": 16, "available_bikes": 14, "last_update": 1508221977000}, {"number": 47, "name": "HERBERT STREET", "address": "Herbert Street", "position": {"lat": 53.335742, "lng": -6.24551}, "banking": false, "bonus": false, "status": "OPEN", "contract_name": "Dublin", "bike_stands": 40, "available_bike_stands": 37, "available_bikes": 3, "last_update": 1508221796000}, {"number": 11, "name": "EARLSFORT TERRACE", "address": "Earlsfort Terrace", "position": {"lat": 53.334019, "lng": -6.258371}, "banking": false, "bonus": false, "status": "OPEN", "contract_name": "Dublin", "bike_stands": 30, "available_bike_stands": 17, "available_bikes": 13, "last_update": 1508221970000}, {"number": 17, "name": "GOLDEN LANE", "address": "Golden Lane", "position": {"lat": 53.340803, "lng": -6.267732}, "banking": false, "bonus": false, "status": "OPEN", "contract_name": "Dublin", "bike_stands": 20, "available_bike_stands": 11, "available_bikes": 9, "last_update": 1508221805000}, {"number": 45, "name": "DEVERELL PLACE", "address": "Deverell Place", "position": {"lat": 53.351464, "lng": -6.255265}, "banking": false, "bonus": false, "status": "OPEN", "contract_name": "Dublin", "bike_stands": 30, "available_bike_stands": 15, "available_bikes": 15, "last_update": 1508221559000}, {"number": 72, "name": "JOHN STREET WEST", "address": "John Street West", "position": {"lat": 53.343105, "lng": -6.277167}, "banking": false, "bonus": false, "status": "OPEN", "contract_name": "Dublin", "bike_stands": 31, "available_bike_stands": 27, "available_bikes": 4, "last_update": 1508222001000}, {"number": 99, "name": "CITY QUAY", "address": "City Quay", "position": {"lat": 53.346637, "lng": -6.246154}, "banking": false, "bonus": false, "status": "OPEN", "contract_name": "Dublin", "bike_stands": 30, "available_bike_stands": 24, "available_bikes": 6, "last_update": 1508221695000}, {"number": 9, "name": "EXCHEQUER STREET", "address": "Exchequer Street", "position": {"lat": 53.343034, "lng": -6.263578}, "banking": false, "bonus": false, "status": "OPEN", "contract_name": "Dublin", "bike_stands": 24, "available_bike_stands": 18, "available_bikes": 6, "last_update": 1508221946000}, {"number": 55, "name": "HATCH STREET", "address": "Hatch Street", "position": {"lat": 53.33403, "lng": -6.260714}, "banking": false, "bonus": false, "status": "OPEN", "contract_name": "Dublin", "bike_stands": 36, "available_bike_stands": 11, "available_bikes": 25, "last_update": 1508221889000}, {"number": 5, "name": "CHARLEMONT PLACE", "address": "Charlemont Street", "position": {"lat": 53.330662, "lng": -6.260177}, "banking": false, "bonus": false, "status": "OPEN", "contract_name": "Dublin", "bike_stands": 40, "available_bike_stands": 8, "available_bikes": 31, "last_update": 1508221962000}, {"number": 61, "name": "HARDWICKE PLACE", "address": "Hardwicke Place", "position": {"lat": 53.357043, "lng": -6.263232}, "banking": true, "bonus": false, "status": "OPEN", "contract_name": "Dublin", "bike_stands": 25, "available_bike_stands": 25, "available_bikes": 0, "last_update": 1508221693000}, {"number": 77, "name": "WOLFE TONE STREET", "address": "Wolfe Tone Street", "position": {"lat": 53.348875, "lng": -6.267459}, "banking": false, "bonus": false, "status": "OPEN", "contract_name": "Dublin", "bike_stands": 29, "available_bike_stands": 8, "available_bikes": 21, "last_update": 1508221673000}, {"number": 73, "name": "FRANCIS STREET", "address": "Francis Street", "position": {"lat": 53.342081, "lng": -6.275233}, "banking": true, "bonus": false, "status": "OPEN", "contract_name": "Dublin", "bike_stands": 30, "available_bike_stands": 24, "available_bikes": 6, "last_update": 1508221847000}, {"number": 4, "name": "GREEK STREET", "address": "Greek Street", "position": {"lat": 53.346874, "lng": -6.272976}, "banking": false, "bonus": false, "status": "OPEN", "contract_name": "Dublin", "bike_stands": 20, "available_bike_stands": 4, "available_bikes": 16, "last_update": 1508221779000}, {"number": 7, "name": "HIGH STREET", "address": "High Street", "position": {"lat": 53.343565, "lng": -6.275071}, "banking": true, "bonus": false, "status": "OPEN", "contract_name": "Dublin", "bike_stands": 29, "available_bike_stands": 5, "available_bikes": 24, "last_update": 1508221895000}, {"number": 60, "name": "NORTH CIRCULAR ROAD", "address": "North Circular Road", "position": {"lat": 53.359624, "lng": -6.260348}, "banking": true, "bonus": false, "status": "OPEN", "contract_name": "Dublin", "bike_stands": 30, "available_bike_stands": 28, "available_bikes": 2, "last_update": 1508221858000}, {"number": 38, "name": "TALBOT STREET", "address": "Talbot Street", "position": {"lat": 53.350974, "lng": -6.25294}, "banking": false, "bonus": false, "status": "OPEN", "contract_name": "Dublin", "bike_stands": 40, "available_bike_stands": 26, "available_bikes": 13, "last_update": 1508221949000}, {"number": 58, "name": "SIR PATRICK DUN'S", "address": "Sir Patrick's Dun", "position": {"lat": 53.339218, "lng": -6.240642}, "banking": true, "bonus": false, "status": "OPEN", "contract_name": "Dublin", "bike_stands": 40, "available_bike_stands": 17, "available_bikes": 23, "last_update": 1508222004000}, {"number": 66, "name": "NEW CENTRAL BANK", "address": "New Central Bank", "position": {"lat": 53.347122, "lng": -6.234749}, "banking": false, "bonus": false, "status": "OPEN", "contract_name": "Dublin", "bike_stands": 40, "available_bike_stands": 19, "available_bikes": 21, "last_update": 1508221979000}, {"number": 16, "name": "GEORGES QUAY", "address": "Georges Quay", "position": {"lat": 53.347508, "lng": -6.252192}, "banking": false, "bonus": false, "status": "OPEN", "contract_name": "Dublin", "bike_stands": 20, "available_bike_stands": 16, "available_bikes": 4, "last_update": 1508221936000}, {"number": 82, "name": "MOUNT BROWN", "address": "Mount Brown", "position": {"lat": 53.341645, "lng": -6.29719}, "banking": false, "bonus": false, "status": "OPEN", "contract_name": "Dublin", "bike_stands": 22, "available_bike_stands": 19, "available_bikes": 3, "last_update": 1508221539000}, {"number": 95, "name": "ROYAL HOSPITAL", "address": "Royal Hospital", "position": {"lat": 53.343897, "lng": -6.29706}, "banking": true, "bonus": false, "status": "OPEN", "contract_name": "Dublin", "bike_stands": 40, "available_bike_stands": 37, "available_bikes": 3, "last_update": 1508221817000}, {"number": 93, "name": "HEUSTON STATION (CENTRAL)", "address": "Heuston Station (Central)", "position": {"lat": 53.346603, "lng": -6.296924}, "banking": false, "bonus": false, "status": "OPEN", "contract_name": "Dublin", "bike_stands": 40, "available_bike_stands": 0, "available_bikes": 40, "last_update": 1508221704000}, {"number": 22, "name": "TOWNSEND STREET", "address": "Townsend Street", "position": {"lat": 53.345922, "lng": -6.254614}, "banking": false, "bonus": false, "status": "OPEN", "contract_name": "Dublin", "bike_stands": 20, "available_bike_stands": 10, "available_bikes": 10, "last_update": 1508221815000}, {"number": 34, "name": "PORTOBELLO HARBOUR", "address": "Portobello Harbour", "position": {"lat": 53.330362, "lng": -6.265163}, "banking": false, "bonus": false, "status": "OPEN", "contract_name": "Dublin", "bike_stands": 30, "available_bike_stands": 25, "available_bikes": 5, "last_update": 1508222014000}, {"number": 8, "name": "CUSTOM HOUSE QUAY", "address": "Custom House Quay", "position": {"lat": 53.347884, "lng": -6.248048}, "banking": false, "bonus": false, "status": "OPEN", "contract_name": "Dublin", "bike_stands": 30, "available_bike_stands": 19, "available_bikes": 11, "last_update": 1508222003000}, {"number": 27, "name": "MOLESWORTH STREET", "address": "Molesworth Street", "position": {"lat": 53.341288, "lng": -6.258117}, "banking": false, "bonus": false, "status": "OPEN", "contract_name": "Dublin", "bike_stands": 20, "available_bike_stands": 13, "available_bikes": 7, "last_update": 1508221876000}, {"number": 96, "name": "KILMAINHAM LANE", "address": "Kilmainham Lane", "position": {"lat": 53.341805, "lng": -6.305085}, "banking": false, "bonus": false, "status": "OPEN", "contract_name": "Dublin", "bike_stands": 30, "available_bike_stands": 30, "available_bikes": 0, "last_update": 1508221837000}, {"number": 76, "name": "MARKET STREET SOUTH", "address": "Market Street South", "position": {"lat": 53.342296, "lng": -6.287661}, "banking": false, "bonus": false, "status": "OPEN", "contract_name": "Dublin", "bike_stands": 38, "available_bike_stands": 38, "available_bikes": 0, "last_update": 1508221941000}, {"number": 71, "name": "KEVIN STREET", "address": "Kevin Street", "position": {"lat": 53.337757, "lng": -6.267699}, "banking": true, "bonus": false, "status": "OPEN", "contract_name": "Dublin", "bike_stands": 40, "available_bike_stands": 15, "available_bikes": 24, "last_update": 1508221884000}, {"number": 79, "name": "ECCLES STREET EAST", "address": "Eccles Street East", "position": {"lat": 53.358115, "lng": -6.265601}, "banking": false, "bonus": false, "status": "OPEN", "contract_name": "Dublin", "bike_stands": 27, "available_bike_stands": 22, "available_bikes": 5, "last_update": 1508221639000}, {"number": 69, "name": "GRAND CANAL DOCK", "address": "Grand Canal Dock", "position": {"lat": 53.342638, "lng": -6.238695}, "banking": false, "bonus": false, "status": "OPEN", "contract_name": "Dublin", "bike_stands": 40, "available_bike_stands": 6, "available_bikes": 33, "last_update": 1508222017000}, {"number": 25, "name": "MERRION SQUARE EAST", "address": "Merrion Square East", "position": {"lat": 53.339434, "lng": -6.246548}, "banking": false, "bonus": false, "status": "OPEN", "contract_name": "Dublin", "bike_stands": 30, "available_bike_stands": 23, "available_bikes": 7, "last_update": 1508221817000}, {"number": 51, "name": "YORK STREET WEST", "address": "York Street West", "position": {"lat": 53.339334, "lng": -6.264699}, "banking": false, "bonus": false, "status": "OPEN", "contract_name": "Dublin", "bike_stands": 40, "available_bike_stands": 22, "available_bikes": 18, "last_update": 1508221532000}, {"number": 37, "name": "ST. STEPHEN'S GREEN SOUTH", "address": "St. Stephen's Green South", "position": {"lat": 53.337494, "lng": -6.26199}, "banking": true, "bonus": false, "status": "OPEN", "contract_name": "Dublin", "bike_stands": 30, "available_bike_stands": 19, "available_bikes": 11, "last_update": 1508221849000}, {"number": 59, "name": "DENMARK STREET GREAT", "address": "Denmark Street Great", "position": {"lat": 53.35561, "lng": -6.261397}, "banking": false, "bonus": false, "status": "OPEN", "contract_name": "Dublin", "bike_stands": 20, "available_bike_stands": 20, "available_bikes": 0, "last_update": 1508221445000}, {"number": 94, "name": "HEUSTON STATION (CAR PARK)", "address": "Heuston Station (Car Park)", "position": {"lat": 53.346985, "lng": -6.297804}, "banking": false, "bonus": false, "status": "OPEN", "contract_name": "Dublin", "bike_stands": 40, "available_bike_stands": 0, "available_bikes": 40, "last_update": 1508222001000}, {"number": 36, "name": "ST. STEPHEN'S GREEN EAST", "address": "St. Stephen's Green East", "position": {"lat": 53.337824, "lng": -6.256035}, "banking": true, "bonus": false, "status": "OPEN", "contract_name": "Dublin", "bike_stands": 40, "available_bike_stands": 18, "available_bikes": 22, "last_update": 1508221969000}, {"number": 12, "name": "ECCLES STREET", "address": "Eccles Street", "position": {"lat": 53.359246, "lng": -6.269779}, "banking": false, "bonus": false, "status": "OPEN", "contract_name": "Dublin", "bike_stands": 20, "available_bike_stands": 20, "available_bikes": 0, "last_update": 1508221674000}, {"number": 78, "name": "MATER HOSPITAL", "address": "Mater Hospital", "position": {"lat": 53.359967, "lng": -6.264828}, "banking": false, "bonus": false, "status": "OPEN", "contract_name": "Dublin", "bike_stands": 40, "available_bike_stands": 25, "available_bikes": 15, "last_update": 1508221793000}, {"number": 2, "name": "BLESSINGTON STREET", "address": "Blessington Street", "position": {"lat": 53.356769, "lng": -6.26814}, "banking": true, "bonus": false, "status": "OPEN", "contract_name": "Dublin", "bike_stands": 20, "available_bike_stands": 10, "available_bikes": 10, "last_update": 1508221773000}, {"number": 26, "name": "MERRION SQUARE WEST", "address": "Merrion Square West", "position": {"lat": 53.339764, "lng": -6.251988}, "banking": true, "bonus": false, "status": "OPEN", "contract_name": "Dublin", "bike_stands": 20, "available_bike_stands": 4, "available_bikes": 16, "last_update": 1508221896000}, {"number": 65, "name": "CONVENTION CENTRE", "address": "Convention Centre", "position": {"lat": 53.34744, "lng": -6.238523}, "banking": true, "bonus": false, "status": "OPEN", "contract_name": "Dublin", "bike_stands": 40, "available_bike_stands": 32, "available_bikes": 8, "last_update": 1508222013000}, {"number": 15, "name": "HARDWICKE STREET", "address": "Hardwicke Street", "position": {"lat": 53.355473, "lng": -6.264423}, "banking": false, "bonus": false, "status": "OPEN", "contract_name": "Dublin", "bike_stands": 16, "available_bike_stands": 16, "available_bikes": 0, "last_update": 1508221647000}, {"number": 35, "name": "SMITHFIELD", "address": "Smithfield", "position": {"lat": 53.347692, "lng": -6.278214}, "banking": false, "bonus": false, "status": "OPEN", "contract_name": "Dublin", "bike_stands": 30, "available_bike_stands": 30, "available_bikes": 0, "last_update": 1508221888000}, {"number": 10, "name": "DAME STREET", "address": "Dame Street", "position": {"lat": 53.344007, "lng": -6.266802}, "banking": true, "bonus": false, "status": "OPEN", "contract_name": "Dublin", "bike_stands": 16, "available_bike_stands": 0, "available_bikes": 15, "last_update": 1508222009000}, {"number": 64, "name": "SANDWITH STREET", "address": "Sandwith Street", "position": {"lat": 53.345203, "lng": -6.247163}, "banking": true, "bonus": false, "status": "OPEN", "contract_name": "Dublin", "bike_stands": 40, "available_bike_stands": 35, "available_bikes": 5, "last_update": 1508221548000}, {"number": 33, "name": "PRINCES STREET / O'CONNELL STREET", "address": "Princes Street / O'Connell Street", "position": {"lat": 53.349013, "lng": -6.260311}, "banking": true, "bonus": false, "status": "OPEN", "contract_name": "Dublin", "bike_stands": 23, "available_bike_stands": 11, "available_bikes": 12, "last_update": 1508221990000}, {"number": 57, "name": "GRATTAN STREET", "address": "Grattan Street", "position": {"lat": 53.339629, "lng": -6.243778}, "banking": false, "bonus": false, "status": "OPEN", "contract_name": "Dublin", "bike_stands": 23, "available_bike_stands": 21, "available_bikes": 2, "last_update": 1508221679000}, {"number": 80, "name": "ST JAMES HOSPITAL (LUAS)", "address": "St James Hospital (Luas)", "position": {"lat": 53.341359, "lng": -6.292951}, "banking": false, "bonus": false, "status": "OPEN", "contract_name": "Dublin", "bike_stands": 40, "available_bike_stands": 21, "available_bikes": 19, "last_update": 1508222009000}, {"number": 3, "name": "BOLTON STREET", "address": "Bolton Street", "position": {"lat": 53.351182, "lng": -6.269859}, "banking": false, "bonus": false, "status": "OPEN", "contract_name": "Dublin", "bike_stands": 20, "available_bike_stands": 15, "available_bikes": 5, "last_update": 1508221981000}, {"number": 46, "name": "STRAND STREET GREAT", "address": "Strand Street Great", "position": {"lat": 53.347082, "lng": -6.264192}, "banking": true, "bonus": false, "status": "OPEN", "contract_name": "Dublin", "bike_stands": 35, "available_bike_stands": 4, "available_bikes": 31, "last_update": 1508221779000}, {"number": 70, "name": "BARROW STREET", "address": "Barrow Street", "position": {"lat": 53.341655, "lng": -6.236198}, "banking": true, "bonus": false, "status": "OPEN", "contract_name": "Dublin", "bike_stands": 40, "available_bike_stands": 10, "available_bikes": 29, "last_update": 1508221983000}, {"number": 28, "name": "MOUNTJOY SQUARE WEST", "address": "Mountjoy Square West", "position": {"lat": 53.356299, "lng": -6.258586}, "banking": false, "bonus": false, "status": "OPEN", "contract_name": "Dublin", "bike_stands": 30, "available_bike_stands": 30, "available_bikes": 0, "last_update": 1508221702000}, {"number": 39, "name": "WILTON TERRACE", "address": "Wilton Terrace", "position": {"lat": 53.332383, "lng": -6.252717}, "banking": true, "bonus": false, "status": "OPEN", "contract_name": "Dublin", "bike_stands": 20, "available_bike_stands": 3, "available_bikes": 17, "last_update": 1508221960000}, {"number": 21, "name": "LEINSTER STREET SOUTH", "address": "Leinster Street South", "position": {"lat": 53.34218, "lng": -6.254485}, "banking": false, "bonus": false, "status": "OPEN", "contract_name": "Dublin", "bike_stands": 30, "available_bike_stands": 9, "available_bikes": 21, "last_update": 1508221941000}, {"number": 75, "name": "JAMES STREET", "address": "James Street", "position": {"lat": 53.343456, "lng": -6.287409}, "banking": true, "bonus": false, "status": "OPEN", "contract_name": "Dublin", "bike_stands": 40, "available_bike_stands": 40, "available_bikes": 0, "last_update": 1508221882000}, {"number": 86, "name": "PARKGATE STREET", "address": "Parkgate Street", "position": {"lat": 53.347972, "lng": -6.291804}, "banking": true, "bonus": false, "status": "OPEN", "contract_name": "Dublin", "bike_stands": 38, "available_bike_stands": 29, "available_bikes": 9, "last_update": 1508221657000}, {"number": 100, "name": "HEUSTON BRIDGE (SOUTH)", "address": "Heuston Bridge (South)", "position": {"lat": 53.347106, "lng": -6.292041}, "banking": false, "bonus": false, "status": "OPEN", "contract_name": "Dublin", "bike_stands": 25, "available_bike_stands": 3, "available_bikes": 22, "last_update": 1508221602000}, {"number": 24, "name": "CATHAL BRUGHA STREET", "address": "Cathal Brugha Street", "position": {"lat": 53.352149, "lng": -6.260533}, "banking": false, "bonus": false, "status": "OPEN", "contract_name": "Dublin", "bike_stands": 20, "available_bike_stands": 19, "available_bikes": 1, "last_update": 1508221919000}, {"number": 85, "name": "ROTHE ABBEY", "address": "Rothe Abbey", "position": {"lat": 53.338776, "lng": -6.30395}, "banking": true, "bonus": false, "status": "OPEN", "contract_name": "Dublin", "bike_stands": 35, "available_bike_stands": 19, "available_bikes": 16, "last_update": 1508221609000}, {"number": 44, "name": "UPPER SHERRARD STREET", "address": "Upper Sherrard Street", "position": {"lat": 53.358437, "lng": -6.260641}, "banking": false, "bonus": false, "status": "OPEN", "contract_name": "Dublin", "bike_stands": 30, "available_bike_stands": 30, "available_bikes": 0, "last_update": 1508221868000}, {"number": 89, "name": "FITZWILLIAM SQUARE EAST", "address": "Fitzwilliam Square East", "position": {"lat": 53.335211, "lng": -6.2509}, "banking": true, "bonus": false, "status": "OPEN", "contract_name": "Dublin", "bike_stands": 40, "available_bike_stands": 25, "available_bikes": 15, "last_update": 1508221870000}, {"number": 41, "name": "HARCOURT TERRACE", "address": "Harcourt Terrace", "position": {"lat": 53.332763, "lng": -6.257942}, "banking": false, "bonus": false, "status": "OPEN", "contract_name": "Dublin", "bike_stands": 20, "available_bike_stands": 8, "available_bikes": 12, "last_update": 1508221969000}, {"number": 40, "name": "JERVIS STREET", "address": "Jervis Street", "position": {"lat": 53.3483, "lng": -6.266651}, "banking": true, "bonus": false, "status": "OPEN", "contract_name": "Dublin", "bike_stands": 21, "available_bike_stands": 16, "available_bikes": 5, "last_update": 1508221902000}, {"number": 29, "name": "ORMOND QUAY UPPER", "address": "Ormond Quay Upper", "position": {"lat": 53.346057, "lng": -6.268001}, "banking": true, "bonus": false, "status": "OPEN", "contract_name": "Dublin", "bike_stands": 29, "available_bike_stands": 17, "available_bikes": 12, "last_update": 1508221638000}, {"number": 83, "name": "EMMET ROAD", "address": "Emmet Road", "position": {"lat": 53.340714, "lng": -6.308191}, "banking": false, "bonus": false, "status": "OPEN", "contract_name": "Dublin", "bike_stands": 40, "available_bike_stands": 34, "available_bikes": 6, "last_update": 1508221777000}, {"number": 92, "name": "HEUSTON BRIDGE (NORTH)", "address": "Heuston Bridge (North)", "position": {"lat": 53.347802, "lng": -6.292432}, "banking": false, "bonus": false, "status": "OPEN", "contract_name": "Dublin", "bike_stands": 40, "available_bike_stands": 9, "available_bikes": 31, "last_update": 1508221830000}, {"number": 88, "name": "BLACKHALL PLACE", "address": "Blackhall Place", "position": {"lat": 53.3488, "lng": -6.281637}, "banking": false, "bonus": false, "status": "OPEN", "contract_name": "Dublin", "bike_stands": 30, "available_bike_stands": 15, "available_bikes": 14, "last_update": 1508221493000}]], ["20171017 08:03:55", [{"number": 42, "name": "SMITHFIELD NORTH", "address": "Smithfield North", "position": {"lat": 53.349562, "lng": -6.278198}, "banking": true, "bonus": false, "status": "OPEN", "contract_name": "Dublin", "bike_stands": 30, "available_bike_stands": 25, "available_bikes": 5, "last_update": 1508223807000}, {"number": 30, "name": "PARNELL SQUARE NORTH", "address": "Parnell Square North", "position": {"lat": 53.353462, "lng": -6.265305}, "banking": true, "bonus": false, "status": "OPEN", "contract_name": "Dublin", "bike_stands": 20, "available_bike_stands": 20, "available_bikes": 0, "last_update": 1508223332000}, {"number": 32, "name": "PEARSE STREET", "address": "Pearse Street", "position": {"lat": 53.344304, "lng": -6.250427}, "banking": true, "bonus": false, "status": "OPEN", "contract_name": "Dublin", "bike_stands": 30, "available_bike_stands": 12, "available_bikes": 18, "last_update": 1508223764000}, {"number": 48, "name": "EXCISE WALK", "address": "Excise Walk", "position": {"lat": 53.347777, "lng": -6.244239}, "banking": false, "bonus": false, "status": "OPEN", "contract_name": "Dublin", "bike_stands": 40, "available_bike_stands": 23, "available_bikes": 16, "last_update": 1508223768000}, {"number": 13, "name": "FITZWILLIAM SQUARE WEST", "address": "Fitzwilliam Square West", "position": {"lat": 53.336074, "lng": -6.252825}, "banking": false, "bonus": false, "status": "OPEN", "contract_name": "Dublin", "bike_stands": 30, "available_bike_stands": 26, "available_bikes": 4, "last_update": 1508223722000}, {"number": 81, "name": "ST. JAMES HOSPITAL (CENTRAL)", "address": "St. James Hospital (Central)", "position": {"lat": 53.339983, "lng": -6.295594}, "banking": false, "bonus": false, "status": "OPEN", "contract_name": "Dublin", "bike_stands": 40, "available_bike_stands": 34, "available_bikes": 6, "last_update": 1508223257000}, {"number": 68, "name": "HANOVER QUAY", "address": "Hanover Quay", "position": {"lat": 53.344115, "lng": -6.237153}, "banking": true, "bonus": false, "status": "OPEN", "contract_name": "Dublin", "bike_stands": 40, "available_bike_stands": 0, "available_bikes": 39, "last_update": 1508223659000}, {"number": 74, "name": "OLIVER BOND STREET", "address": "Oliver Bond Street", "position": {"lat": 53.343893, "lng": -6.280531}, "banking": false, "bonus": false, "status": "OPEN", "contract_name": "Dublin", "bike_stands": 30, "available_bike_stands": 30, "available_bikes": 0, "last_update": 1508223346000}, {"number": 87, "name": "COLLINS BARRACKS MUSEUM", "address": "Collins Barracks Museum", "position": {"lat": 53.347477, "lng": -6.28525}, "banking": true, "bonus": false, "status": "OPEN", "contract_name": "Dublin", "bike_stands": 38, "available_bike_stands": 38, "available_bikes": 0, "last_update": 1508223673000}, {"number": 84, "name": "BROOKFIELD ROAD", "address": "Brookfield Road", "position": {"lat": 53.339005, "lng": -6.300217}, "banking": false, "bonus": false, "status": "OPEN", "contract_name": "Dublin", "bike_stands": 30, "available_bike_stands": 23, "available_bikes": 7, "last_update": 1508223614000}, {"number": 54, "name": "CLONMEL STREET", "address": "Clonmel Street", "position": {"lat": 53.336021, "lng": -6.26298}, "banking": false, "bonus": false, "status": "OPEN", "contract_name": "Dublin", "bike_stands": 33, "available_bike_stands": 0, "available_bikes": 31, "last_update": 1508223694000}, {"number": 56, "name": "MOUNT STREET LOWER", "address": "Mount Street Lower", "position": {"lat": 53.33796, "lng": -6.24153}, "banking": false, "bonus": false, "status": "OPEN", "contract_name": "Dublin", "bike_stands": 40, "available_bike_stands": 23, "available_bikes": 16, "last_update": 1508223804000}, {"number": 6, "name": "CHRISTCHURCH PLACE", "address": "Christchurch Place", "position": {"lat": 53.343368, "lng": -6.27012}, "banking": false, "bonus": false, "status": "OPEN", "contract_name": "Dublin", "bike_stands": 20, "available_bike_stands": 9, "available_bikes": 11, "last_update": 1508223794000}, {"number": 18, "name": "GRANTHAM STREET", "address": "Grantham Street", "position": {"lat": 53.334123, "lng": -6.265436}, "banking": true, "bonus": false, "status": "OPEN", "contract_name": "Dublin", "bike_stands": 30, "available_bike_stands": 14, "available_bikes": 16, "last_update": 1508223700000}, {"number": 52, "name": "YORK STREET EAST", "address": "York Street East", "position": {"lat": 53.338755, "lng": -6.262003}, "banking": false, "bonus": false, "status": "OPEN", "contract_name": "Dublin", "bike_stands": 32, "available_bike_stands": 20, "available_bikes": 12, "last_update": 1508223724000}, {"number": 43, "name": "PORTOBELLO ROAD", "address": "Portobello Road", "position": {"lat": 53.330091, "lng": -6.268044}, "banking": true, "bonus": false, "status": "OPEN", "contract_name": "Dublin", "bike_stands": 30, "available_bike_stands": 30, "available_bikes": 0, "last_update": 1508223768000}, {"number": 31, "name": "PARNELL STREET", "address": "Parnell Street", "position": {"lat": 53.350929, "lng": -6.265125}, "banking": false, "bonus": false, "status": "OPEN", "contract_name": "Dublin", "bike_stands": 20, "available_bike_stands": 20, "available_bikes": 0, "last_update": 1508223722000}, {"number": 98, "name": "FREDERICK STREET SOUTH", "address": "Frederick Street South", "position": {"lat": 53.341515, "lng": -6.256853}, "banking": true, "bonus": false, "status": "OPEN", "contract_name": "Dublin", "bike_stands": 30, "available_bike_stands": 11, "available_bikes": 18, "last_update": 1508223783000}, {"number": 14, "name": "FOWNES STREET UPPER", "address": "Fownes Street Upper", "position": {"lat": 53.344603, "lng": -6.263371}, "banking": false, "bonus": false, "status": "OPEN", "contract_name": "Dublin", "bike_stands": 30, "available_bike_stands": 22, "available_bikes": 8, "last_update": 1508223627000}, {"number": 1, "name": "CLARENDON ROW", "address": "Clarendon Row", "position": {"lat": 53.340927, "lng": -6.262501}, "banking": false, "bonus": false, "status": "OPEN", "contract_name": "Dublin", "bike_stands": 31, "available_bike_stands": 0, "available_bikes": 31, "last_update": 1508223531000}, {"number": 23, "name": "CUSTOM HOUSE", "address": "Custom House", "position": {"lat": 53.348279, "lng": -6.254662}, "banking": true, "bonus": false, "status": "OPEN", "contract_name": "Dublin", "bike_stands": 30, "available_bike_stands": 13, "available_bikes": 16, "last_update": 1508223777000}, {"number": 90, "name": "BENSON STREET", "address": "Benson Street", "position": {"lat": 53.344153, "lng": -6.233451}, "banking": false, "bonus": false, "status": "OPEN", "contract_name": "Dublin", "bike_stands": 40, "available_bike_stands": 5, "available_bikes": 34, "last_update": 1508223806000}, {"number": 63, "name": "FENIAN STREET", "address": "Fenian Street", "position": {"lat": 53.341428, "lng": -6.24672}, "banking": false, "bonus": false, "status": "OPEN", "contract_name": "Dublin", "bike_stands": 35, "available_bike_stands": 19, "available_bikes": 16, "last_update": 1508223802000}, {"number": 91, "name": "SOUTH DOCK ROAD", "address": "South Dock Road", "position": {"lat": 53.341833, "lng": -6.231291}, "banking": false, "bonus": false, "status": "OPEN", "contract_name": "Dublin", "bike_stands": 30, "available_bike_stands": 10, "available_bikes": 20, "last_update": 1508223807000}, {"number": 67, "name": "THE POINT", "address": "The Point", "position": {"lat": 53.346867, "lng": -6.230852}, "banking": true, "bonus": false, "status": "OPEN", "contract_name": "Dublin", "bike_stands": 40, "available_bike_stands": 0, "available_bikes": 39, "last_update": 1508223293000}, {"number": 62, "name": "LIME STREET", "address": "Lime Street", "position": {"lat": 53.346026, "lng": -6.243576}, "banking": false, "bonus": false, "status": "OPEN", "contract_name": "Dublin", "bike_stands": 40, "available_bike_stands": 15, "available_bikes": 25, "last_update": 1508223784000}, {"number": 97, "name": "KILMAINHAM GAOL", "address": "Kilmainham Gaol", "position": {"lat": 53.342113, "lng": -6.310015}, "banking": true, "bonus": false, "status": "OPEN", "contract_name": "Dublin", "bike_stands": 40, "available_bike_stands": 40, "available_bikes": 0, "last_update": 1508223296000}, {"number": 49, "name": "GUILD STREET", "address": "Guild Street", "position": {"lat": 53.347932, "lng": -6.240928}, "banking": false, "bonus": false, "status": "OPEN", "contract_name": "Dublin", "bike_stands": 40, "available_bike_stands": 37, "available_bikes": 2, "last_update": 1508223762000}, {"number": 19, "name": "HERBERT PLACE", "address": "Herbert Place", "position": {"lat": 53.334432, "lng": -6.245575}, "banking": false, "bonus": false, "status": "OPEN", "contract_name": "Dublin", "bike_stands": 30, "available_bike_stands": 17, "available_bikes": 13, "last_update": 1508223745000}, {"number": 102, "name": "WESTERN WAY", "address": "Western Way", "position": {"lat": 53.354929, "lng": -6.269425}, "banking": false, "bonus": false, "status": "OPEN", "contract_name": "Dublin", "bike_stands": 40, "available_bike_stands": 40, "available_bikes": 0, "last_update": 1508223689000}, {"number": 53, "name": "NEWMAN HOUSE", "address": "Newman House", "position": {"lat": 53.337132, "lng": -6.26059}, "banking": false, "bonus": false, "status": "OPEN", "contract_name": "Dublin", "bike_stands": 40, "available_bike_stands": 32, "available_bikes": 8, "last_update": 1508223305000}, {"number": 101, "name": "KING STREET NORTH", "address": "King Street North", "position": {"lat": 53.350291, "lng": -6.273507}, "banking": false, "bonus": false, "status": "OPEN", "contract_name": "Dublin", "bike_stands": 30, "available_bike_stands": 20, "available_bikes": 10, "last_update": 1508223683000}, {"number": 47, "name": "HERBERT STREET", "address": "Herbert Street", "position": {"lat": 53.335742, "lng": -6.24551}, "banking": false, "bonus": false, "status": "OPEN", "contract_name": "Dublin", "bike_stands": 40, "available_bike_stands": 31, "available_bikes": 9, "last_update": 1508223769000}, {"number": 11, "name": "EARLSFORT TERRACE", "address": "Earlsfort Terrace", "position": {"lat": 53.334019, "lng": -6.258371}, "banking": false, "bonus": false, "status": "OPEN", "contract_name": "Dublin", "bike_stands": 30, "available_bike_stands": 7, "available_bikes": 22, "last_update": 1508223668000}, {"number": 17, "name": "GOLDEN LANE", "address": "Golden Lane", "position": {"lat": 53.340803, "lng": -6.267732}, "banking": false, "bonus": false, "status": "OPEN", "contract_name": "Dublin", "bike_stands": 20, "available_bike_stands": 11, "available_bikes": 9, "last_update": 1508223812000}, {"number": 45, "name": "DEVERELL PLACE", "address": "Deverell Place", "position": {"lat": 53.351464, "lng": -6.255265}, "banking": false, "bonus": false, "status": "OPEN", "contract_name": "Dublin", "bike_stands": 30, "available_bike_stands": 23, "available_bikes": 7, "last_update": 1508223789000}, {"number": 72, "name": "JOHN STREET WEST", "address": "John Street West", "position": {"lat": 53.343105, "lng": -6.277167}, "banking": false, "bonus": false, "status": "OPEN", "contract_name": "Dublin", "bike_stands": 31, "available_bike_stands": 31, "available_bikes": 0, "last_update": 1508223404000}, {"number": 99, "name": "CITY QUAY", "address": "City Quay", "position": {"lat": 53.346637, "lng": -6.246154}, "banking": false, "bonus": false, "status": "OPEN", "contract_name": "Dublin", "bike_stands": 30, "available_bike_stands": 22, "available_bikes": 8, "last_update": 1508223603000}, {"number": 9, "name": "EXCHEQUER STREET", "address": "Exchequer Street", "position": {"lat": 53.343034, "lng": -6.263578}, "banking": false, "bonus": false, "status": "OPEN", "contract_name": "Dublin", "bike_stands": 24, "available_bike_stands": 15, "available_bikes": 8, "last_update": 1508223720000}, {"number": 55, "name": "HATCH STREET", "address": "Hatch Street", "position": {"lat": 53.33403, "lng": -6.260714}, "banking": false, "bonus": false, "status": "OPEN", "contract_name": "Dublin", "bike_stands": 36, "available_bike_stands": 3, "available_bikes": 33, "last_update": 1508223720000}, {"number": 5, "name": "CHARLEMONT PLACE", "address": "Charlemont Street", "position": {"lat": 53.330662, "lng": -6.260177}, "banking": false, "bonus": false, "status": "OPEN", "contract_name": "Dublin", "bike_stands": 40, "available_bike_stands": 34, "available_bikes": 5, "last_update": 1508223788000}, {"number": 61, "name": "HARDWICKE PLACE", "address": "Hardwicke Place", "position": {"lat": 53.357043, "lng": -6.263232}, "banking": true, "bonus": false, "status": "OPEN", "contract_name": "Dublin", "bike_stands": 25, "available_bike_stands": 24, "available_bikes": 1, "last_update": 1508223707000}, {"number": 77, "name": "WOLFE TONE STREET", "address": "Wolfe Tone Street", "position": {"lat": 53.348875, "lng": -6.267459}, "banking": false, "bonus": false, "status": "OPEN", "contract_name": "Dublin", "bike_stands": 29, "available_bike_stands": 10, "available_bikes": 19, "last_update": 1508223546000}, {"number": 73, "name": "FRANCIS STREET", "address": "Francis Street", "position": {"lat": 53.342081, "lng": -6.275233}, "banking": true, "bonus": false, "status": "OPEN", "contract_name": "Dublin", "bike_stands": 30, "available_bike_stands": 30, "available_bikes": 0, "last_update": 1508223811000}, {"number": 4, "name": "GREEK STREET", "address": "Greek Street", "position": {"lat": 53.346874, "lng": -6.272976}, "banking": false, "bonus": false, "status": "OPEN", "contract_name": "Dublin", "bike_stands": 20, "available_bike_stands": 9, "available_bikes": 11, "last_update": 1508223544000}, {"number": 7, "name": "HIGH STREET", "address": "High Street", "position": {"lat": 53.343565, "lng": -6.275071}, "banking": true, "bonus": false, "status": "OPEN", "contract_name": "Dublin", "bike_stands": 29, "available_bike_stands": 18, "available_bikes": 11, "last_update": 1508223805000}, {"number": 60, "name": "NORTH CIRCULAR ROAD", "address": "North Circular Road", "position": {"lat": 53.359624, "lng": -6.260348}, "banking": true, "bonus": false, "status": "OPEN", "contract_name": "Dublin", "bike_stands": 30, "available_bike_stands": 30, "available_bikes": 0, "last_update": 1508223359000}, {"number": 38, "name": "TALBOT STREET", "address": "Talbot Street", "position": {"lat": 53.350974, "lng": -6.25294}, "banking": false, "bonus": false, "status": "OPEN", "contract_name": "Dublin", "bike_stands": 40, "available_bike_stands": 37, "available_bikes": 2, "last_update": 1508223801000}, {"number": 58, "name": "SIR PATRICK DUN'S", "address": "Sir Patrick's Dun", "position": {"lat": 53.339218, "lng": -6.240642}, "banking": true, "bonus": false, "status": "OPEN", "contract_name": "Dublin", "bike_stands": 40, "available_bike_stands": 20, "available_bikes": 20, "last_update": 1508223809000}, {"number": 66, "name": "NEW CENTRAL BANK", "address": "New Central Bank", "position": {"lat": 53.347122, "lng": -6.234749}, "banking": false, "bonus": false, "status": "OPEN", "contract_name": "Dublin", "bike_stands": 40, "available_bike_stands": 12, "available_bikes": 27, "last_update": 1508223805000}, {"number": 16, "name": "GEORGES QUAY", "address": "Georges Quay", "position": {"lat": 53.347508, "lng": -6.252192}, "banking": false, "bonus": false, "status": "OPEN", "contract_name": "Dublin", "bike_stands": 20, "available_bike_stands": 13, "available_bikes": 7, "last_update": 1508223717000}, {"number": 82, "name": "MOUNT BROWN", "address": "Mount Brown", "position": {"lat": 53.341645, "lng": -6.29719}, "banking": false, "bonus": false, "status": "OPEN", "contract_name": "Dublin", "bike_stands": 22, "available_bike_stands": 22, "available_bikes": 0, "last_update": 1508223584000}, {"number": 95, "name": "ROYAL HOSPITAL", "address": "Royal Hospital", "position": {"lat": 53.343897, "lng": -6.29706}, "banking": true, "bonus": false, "status": "OPEN", "contract_name": "Dublin", "bike_stands": 40, "available_bike_stands": 40, "available_bikes": 0, "last_update": 1508223762000}, {"number": 93, "name": "HEUSTON STATION (CENTRAL)", "address": "Heuston Station (Central)", "position": {"lat": 53.346603, "lng": -6.296924}, "banking": false, "bonus": false, "status": "OPEN", "contract_name": "Dublin", "bike_stands": 40, "available_bike_stands": 7, "available_bikes": 33, "last_update": 1508223498000}, {"number": 22, "name": "TOWNSEND STREET", "address": "Townsend Street", "position": {"lat": 53.345922, "lng": -6.254614}, "banking": false, "bonus": false, "status": "OPEN", "contract_name": "Dublin", "bike_stands": 20, "available_bike_stands": 18, "available_bikes": 2, "last_update": 1508223808000}, {"number": 34, "name": "PORTOBELLO HARBOUR", "address": "Portobello Harbour", "position": {"lat": 53.330362, "lng": -6.265163}, "banking": false, "bonus": false, "status": "OPEN", "contract_name": "Dublin", "bike_stands": 30, "available_bike_stands": 21, "available_bikes": 9, "last_update": 1508223818000}, {"number": 8, "name": "CUSTOM HOUSE QUAY", "address": "Custom House Quay", "position": {"lat": 53.347884, "lng": -6.248048}, "banking": false, "bonus": false, "status": "OPEN", "contract_name": "Dublin", "bike_stands": 30, "available_bike_stands": 16, "available_bikes": 13, "last_update": 1508223755000}, {"number": 27, "name": "MOLESWORTH STREET", "address": "Molesworth Street", "position": {"lat": 53.341288, "lng": -6.258117}, "banking": false, "bonus": false, "status": "OPEN", "contract_name": "Dublin", "bike_stands": 20, "available_bike_stands": 9, "available_bikes": 11, "last_update": 1508223812000}, {"number": 96, "name": "KILMAINHAM LANE", "address": "Kilmainham Lane", "position": {"lat": 53.341805, "lng": -6.305085}, "banking": false, "bonus": false, "status": "OPEN", "contract_name": "Dublin", "bike_stands": 30, "available_bike_stands": 30, "available_bikes": 0, "last_update": 1508223725000}, {"number": 76, "name": "MARKET STREET SOUTH", "address": "Market Street South", "position": {"lat": 53.342296, "lng": -6.287661}, "banking": false, "bonus": false, "status": "OPEN", "contract_name": "Dublin", "bike_stands": 38, "available_bike_stands": 38, "available_bikes": 0, "last_update": 1508223754000}, {"number": 71, "name": "KEVIN STREET", "address": "Kevin Street", "position": {"lat": 53.337757, "lng": -6.267699}, "banking": true, "bonus": false, "status": "OPEN", "contract_name": "Dublin", "bike_stands": 40, "available_bike_stands": 19, "available_bikes": 20, "last_update": 1508223808000}, {"number": 79, "name": "ECCLES STREET EAST", "address": "Eccles Street East", "position": {"lat": 53.358115, "lng": -6.265601}, "banking": false, "bonus": false, "status": "OPEN", "contract_name": "Dublin", "bike_stands": 27, "available_bike_stands": 23, "available_bikes": 4, "last_update": 1508223747000}, {"number": 69, "name": "GRAND CANAL DOCK", "address": "Grand Canal Dock", "position": {"lat": 53.342638, "lng": -6.238695}, "banking": false, "bonus": false, "status": "OPEN", "contract_name": "Dublin", "bike_stands": 40, "available_bike_stands": 0, "available_bikes": 39, "last_update": 1508223816000}, {"number": 25, "name": "MERRION SQUARE EAST", "address": "Merrion Square East", "position": {"lat": 53.339434, "lng": -6.246548}, "banking": false, "bonus": false, "status": "OPEN", "contract_name": "Dublin", "bike_stands": 30, "available_bike_stands": 15, "available_bikes": 15, "last_update": 1508223756000}, {"number": 51, "name": "YORK STREET WEST", "address": "York Street West", "position": {"lat": 53.339334, "lng": -6.264699}, "banking": false, "bonus": false, "status": "OPEN", "contract_name": "Dublin", "bike_stands": 40, "available_bike_stands": 20, "available_bikes": 20, "last_update": 1508223687000}, {"number": 37, "name": "ST. STEPHEN'S GREEN SOUTH", "address": "St. Stephen's Green South", "position": {"lat": 53.337494, "lng": -6.26199}, "banking": true, "bonus": false, "status": "OPEN", "contract_name": "Dublin", "bike_stands": 30, "available_bike_stands": 15, "available_bikes": 15, "last_update": 1508223788000}, {"number": 59, "name": "DENMARK STREET GREAT", "address": "Denmark Street Great", "position": {"lat": 53.35561, "lng": -6.261397}, "banking": false, "bonus": false, "status": "OPEN", "contract_name": "Dublin", "bike_stands": 20, "available_bike_stands": 19, "available_bikes": 1, "last_update": 1508223687000}, {"number": 94, "name": "HEUSTON STATION (CAR PARK)", "address": "Heuston Station (Car Park)", "position": {"lat": 53.346985, "lng": -6.297804}, "banking": false, "bonus": false, "status": "OPEN", "contract_name": "Dublin", "bike_stands": 40, "available_bike_stands": 1, "available_bikes": 39, "last_update": 1508223567000}, {"number": 36, "name": "ST. STEPHEN'S GREEN EAST", "address": "St. Stephen's Green East", "position": {"lat": 53.337824, "lng": -6.256035}, "banking": true, "bonus": false, "status": "OPEN", "contract_name": "Dublin", "bike_stands": 40, "available_bike_stands": 13, "available_bikes": 27, "last_update": 1508223816000}, {"number": 12, "name": "ECCLES STREET", "address": "Eccles Street", "position": {"lat": 53.359246, "lng": -6.269779}, "banking": false, "bonus": false, "status": "OPEN", "contract_name": "Dublin", "bike_stands": 20, "available_bike_stands": 20, "available_bikes": 0, "last_update": 1508223788000}, {"number": 78, "name": "MATER HOSPITAL", "address": "Mater Hospital", "position": {"lat": 53.359967, "lng": -6.264828}, "banking": false, "bonus": false, "status": "OPEN", "contract_name": "Dublin", "bike_stands": 40, "available_bike_stands": 40, "available_bikes": 0, "last_update": 1508223557000}, {"number": 2, "name": "BLESSINGTON STREET", "address": "Blessington Street", "position": {"lat": 53.356769, "lng": -6.26814}, "banking": true, "bonus": false, "status": "OPEN", "contract_name": "Dublin", "bike_stands": 20, "available_bike_stands": 17, "available_bikes": 3, "last_update": 1508223816000}, {"number": 26, "name": "MERRION SQUARE WEST", "address": "Merrion Square West", "position": {"lat": 53.339764, "lng": -6.251988}, "banking": true, "bonus": false, "status": "OPEN", "contract_name": "Dublin", "bike_stands": 20, "available_bike_stands": 5, "available_bikes": 15, "last_update": 1508223651000}, {"number": 65, "name": "CONVENTION CENTRE", "address": "Convention Centre", "position": {"lat": 53.34744, "lng": -6.238523}, "banking": true, "bonus": false, "status": "OPEN", "contract_name": "Dublin", "bike_stands": 40, "available_bike_stands": 39, "available_bikes": 1, "last_update": 1508223683000}, {"number": 15, "name": "HARDWICKE STREET", "address": "Hardwicke Street", "position": {"lat": 53.355473, "lng": -6.264423}, "banking": false, "bonus": false, "status": "OPEN", "contract_name": "Dublin", "bike_stands": 16, "available_bike_stands": 16, "available_bikes": 0, "last_update": 1508223460000}, {"number": 35, "name": "SMITHFIELD", "address": "Smithfield", "position": {"lat": 53.347692, "lng": -6.278214}, "banking": false, "bonus": false, "status": "OPEN", "contract_name": "Dublin", "bike_stands": 30, "available_bike_stands": 29, "available_bikes": 1, "last_update": 1508223614000}, {"number": 10, "name": "DAME STREET", "address": "Dame Street", "position": {"lat": 53.344007, "lng": -6.266802}, "banking": true, "bonus": false, "status": "OPEN", "contract_name": "Dublin", "bike_stands": 16, "available_bike_stands": 1, "available_bikes": 14, "last_update": 1508223792000}, {"number": 64, "name": "SANDWITH STREET", "address": "Sandwith Street", "position": {"lat": 53.345203, "lng": -6.247163}, "banking": true, "bonus": false, "status": "OPEN", "contract_name": "Dublin", "bike_stands": 40, "available_bike_stands": 32, "available_bikes": 8, "last_update": 1508223752000}, {"number": 33, "name": "PRINCES STREET / O'CONNELL STREET", "address": "Princes Street / O'Connell Street", "position": {"lat": 53.349013, "lng": -6.260311}, "banking": true, "bonus": false, "status": "OPEN", "contract_name": "Dublin", "bike_stands": 23, "available_bike_stands": 12, "available_bikes": 11, "last_update": 1508223779000}, {"number": 57, "name": "GRATTAN STREET", "address": "Grattan Street", "position": {"lat": 53.339629, "lng": -6.243778}, "banking": false, "bonus": false, "status": "OPEN", "contract_name": "Dublin", "bike_stands": 23, "available_bike_stands": 20, "available_bikes": 3, "last_update": 1508223610000}, {"number": 80, "name": "ST JAMES HOSPITAL (LUAS)", "address": "St James Hospital (Luas)", "position": {"lat": 53.341359, "lng": -6.292951}, "banking": false, "bonus": false, "status": "OPEN", "contract_name": "Dublin", "bike_stands": 40, "available_bike_stands": 25, "available_bikes": 15, "last_update": 1508223809000}, {"number": 3, "name": "BOLTON STREET", "address": "Bolton Street", "position": {"lat": 53.351182, "lng": -6.269859}, "banking": false, "bonus": false, "status": "OPEN", "contract_name": "Dublin", "bike_stands": 20, "available_bike_stands": 13, "available_bikes": 7, "last_update": 1508223817000}, {"number": 46, "name": "STRAND STREET GREAT", "address": "Strand Street Great", "position": {"lat": 53.347082, "lng": -6.264192}, "banking": true, "bonus": false, "status": "OPEN", "contract_name": "Dublin", "bike_stands": 35, "available_bike_stands": 1, "available_bikes": 34, "last_update": 1508223607000}, {"number": 70, "name": "BARROW STREET", "address": "Barrow Street", "position": {"lat": 53.341655, "lng": -6.236198}, "banking": true, "bonus": false, "status": "OPEN", "contract_name": "Dublin", "bike_stands": 40, "available_bike_stands": 13, "available_bikes": 26, "last_update": 1508223785000}, {"number": 28, "name": "MOUNTJOY SQUARE WEST", "address": "Mountjoy Square West", "position": {"lat": 53.356299, "lng": -6.258586}, "banking": false, "bonus": false, "status": "OPEN", "contract_name": "Dublin", "bike_stands": 30, "available_bike_stands": 24, "available_bikes": 6, "last_update": 1508223806000}, {"number": 39, "name": "WILTON TERRACE", "address": "Wilton Terrace", "position": {"lat": 53.332383, "lng": -6.252717}, "banking": true, "bonus": false, "status": "OPEN", "contract_name": "Dublin", "bike_stands": 20, "available_bike_stands": 18, "available_bikes": 2, "last_update": 1508223772000}, {"number": 21, "name": "LEINSTER STREET SOUTH", "address": "Leinster Street South", "position": {"lat": 53.34218, "lng": -6.254485}, "banking": false, "bonus": false, "status": "OPEN", "contract_name": "Dublin", "bike_stands": 30, "available_bike_stands": 7, "available_bikes": 23, "last_update": 1508223779000}, {"number": 75, "name": "JAMES STREET", "address": "James Street", "position": {"lat": 53.343456, "lng": -6.287409}, "banking": true, "bonus": false, "status": "OPEN", "contract_name": "Dublin", "bike_stands": 40, "available_bike_stands": 39, "available_bikes": 1, "last_update": 1508223793000}, {"number": 86, "name": "PARKGATE STREET", "address": "Parkgate Street", "position": {"lat": 53.347972, "lng": -6.291804}, "banking": true, "bonus": false, "status": "OPEN", "contract_name": "Dublin", "bike_stands": 38, "available_bike_stands": 38, "available_bikes": 0, "last_update": 1508223613000}, {"number": 100, "name": "HEUSTON BRIDGE (SOUTH)", "address": "Heuston Bridge (South)", "position": {"lat": 53.347106, "lng": -6.292041}, "banking": false, "bonus": false, "status": "OPEN", "contract_name": "Dublin", "bike_stands": 25, "available_bike_stands": 23, "available_bikes": 2, "last_update": 1508223802000}, {"number": 24, "name": "CATHAL BRUGHA STREET", "address": "Cathal Brugha Street", "position": {"lat": 53.352149, "lng": -6.260533}, "banking": false, "bonus": false, "status": "OPEN", "contract_name": "Dublin", "bike_stands": 20, "available_bike_stands": 18, "available_bikes": 2, "last_update": 1508223533000}, {"number": 85, "name": "ROTHE ABBEY", "address": "Rothe Abbey", "position": {"lat": 53.338776, "lng": -6.30395}, "banking": true, "bonus": false, "status": "OPEN", "contract_name": "Dublin", "bike_stands": 35, "available_bike_stands": 34, "available_bikes": 1, "last_update": 1508223816000}, {"number": 44, "name": "UPPER SHERRARD STREET", "address": "Upper Sherrard Street", "position": {"lat": 53.358437, "lng": -6.260641}, "banking": false, "bonus": false, "status": "OPEN", "contract_name": "Dublin", "bike_stands": 30, "available_bike_stands": 30, "available_bikes": 0, "last_update": 1508223682000}, {"number": 89, "name": "FITZWILLIAM SQUARE EAST", "address": "Fitzwilliam Square East", "position": {"lat": 53.335211, "lng": -6.2509}, "banking": true, "bonus": false, "status": "OPEN", "contract_name": "Dublin", "bike_stands": 40, "available_bike_stands": 23, "available_bikes": 17, "last_update": 1508223658000}, {"number": 41, "name": "HARCOURT TERRACE", "address": "Harcourt Terrace", "position": {"lat": 53.332763, "lng": -6.257942}, "banking": false, "bonus": false, "status": "OPEN", "contract_name": "Dublin", "bike_stands": 20, "available_bike_stands": 10, "available_bikes": 10, "last_update": 1508223437000}, {"number": 40, "name": "JERVIS STREET", "address": "Jervis Street", "position": {"lat": 53.3483, "lng": -6.266651}, "banking": true, "bonus": false, "status": "OPEN", "contract_name": "Dublin", "bike_stands": 21, "available_bike_stands": 18, "available_bikes": 3, "last_update": 1508223536000}, {"number": 29, "name": "ORMOND QUAY UPPER", "address": "Ormond Quay Upper", "position": {"lat": 53.346057, "lng": -6.268001}, "banking": true, "bonus": false, "status": "OPEN", "contract_name": "Dublin", "bike_stands": 29, "available_bike_stands": 21, "available_bikes": 8, "last_update": 1508223812000}, {"number": 83, "name": "EMMET ROAD", "address": "Emmet Road", "position": {"lat": 53.340714, "lng": -6.308191}, "banking": false, "bonus": false, "status": "OPEN", "contract_name": "Dublin", "bike_stands": 40, "available_bike_stands": 40, "available_bikes": 0, "last_update": 1508223284000}, {"number": 92, "name": "HEUSTON BRIDGE (NORTH)", "address": "Heuston Bridge (North)", "position": {"lat": 53.347802, "lng": -6.292432}, "banking": false, "bonus": false, "status": "OPEN", "contract_name": "Dublin", "bike_stands": 40, "available_bike_stands": 26, "available_bikes": 14, "last_update": 1508223816000}, {"number": 88, "name": "BLACKHALL PLACE", "address": "Blackhall Place", "position": {"lat": 53.3488, "lng": -6.281637}, "banking": false, "bonus": false, "status": "OPEN", "contract_name": "Dublin", "bike_stands": 30, "available_bike_stands": 25, "available_bikes": 4, "last_update": 1508223725000}]], ["20171017 08:33:55", [{"number": 42, "name": "SMITHFIELD NORTH", "address": "Smithfield North", "position": {"lat": 53.349562, "lng": -6.278198}, "banking": true, "bonus": false, "status": "OPEN", "contract_name": "Dublin", "bike_stands": 30, "available_bike_stands": 30, "available_bikes": 0, "last_update": 1508225607000}, {"number": 30, "name": "PARNELL SQUARE NORTH", "address": "Parnell Square North", "position": {"lat": 53.353462, "lng": -6.265305}, "banking": true, "bonus": false, "status": "OPEN", "contract_name": "Dublin", "bike_stands": 20, "available_bike_stands": 20, "available_bikes": 0, "last_update": 1508225547000}, {"number": 32, "name": "PEARSE STREET", "address": "Pearse Street", "position": {"lat": 53.344304, "lng": -6.250427}, "banking": true, "bonus": false, "status": "OPEN", "contract_name": "Dublin", "bike_stands": 30, "available_bike_stands": 15, "available_bikes": 15, "last_update": 1508225612000}, {"number": 48, "name": "EXCISE WALK", "address": "Excise Walk", "position": {"lat": 53.347777, "lng": -6.244239}, "banking": false, "bonus": false, "status": "OPEN", "contract_name": "Dublin", "bike_stands": 40, "available_bike_stands": 20, "available_bikes": 19, "last_update": 1508225529000}, {"number": 13, "name": "FITZWILLIAM SQUARE WEST", "address": "Fitzwilliam Square West", "position": {"lat": 53.336074, "lng": -6.252825}, "banking": false, "bonus": false, "status": "OPEN", "contract_name": "Dublin", "bike_stands": 30, "available_bike_stands": 16, "available_bikes": 14, "last_update": 1508225499000}, {"number": 81, "name": "ST. JAMES HOSPITAL (CENTRAL)", "address": "St. James Hospital (Central)", "position": {"lat": 53.339983, "lng": -6.295594}, "banking": false, "bonus": false, "status": "OPEN", "contract_name": "Dublin", "bike_stands": 40, "available_bike_stands": 40, "available_bikes": 0, "last_update": 1508225186000}, {"number": 68, "name": "HANOVER QUAY", "address": "Hanover Quay", "position": {"lat": 53.344115, "lng": -6.237153}, "banking": true, "bonus": false, "status": "OPEN", "contract_name": "Dublin", "bike_stands": 40, "available_bike_stands": 1, "available_bikes": 38, "last_update": 1508225616000}, {"number": 74, "name": "OLIVER BOND STREET", "address": "Oliver Bond Street", "position": {"lat": 53.343893, "lng": -6.280531}, "banking": false, "bonus": false, "status": "OPEN", "contract_name": "Dublin", "bike_stands": 30, "available_bike_stands": 30, "available_bikes": 0, "last_update": 1508225440000}, {"number": 87, "name": "COLLINS BARRACKS MUSEUM", "address": "Collins Barracks Museum", "position": {"lat": 53.347477, "lng": -6.28525}, "banking": true, "bonus": false, "status": "OPEN", "contract_name": "Dublin", "bike_stands": 38, "available_bike_stands": 37, "available_bikes": 1, "last_update": 1508225482000}, {"number": 84, "name": "BROOKFIELD ROAD", "address": "Brookfield Road", "position": {"lat": 53.339005, "lng": -6.300217}, "banking": false, "bonus": false, "status": "OPEN", "contract_name": "Dublin", "bike_stands": 30, "available_bike_stands": 30, "available_bikes": 0, "last_update": 1508225600000}, {"number": 54, "name": "CLONMEL STREET", "address": "Clonmel Street", "position": {"lat": 53.336021, "lng": -6.26298}, "banking": false, "bonus": false, "status": "OPEN", "contract_name": "Dublin", "bike_stands": 33, "available_bike_stands": 0, "available_bikes": 31, "last_update": 1508225388000}, {"number": 56, "name": "MOUNT STREET LOWER", "address": "Mount Street Lower", "position": {"lat": 53.33796, "lng": -6.24153}, "banking": false, "bonus": false, "status": "OPEN", "contract_name": "Dublin", "bike_stands": 40, "available_bike_stands": 14, "available_bikes": 25, "last_update": 1508225596000}, {"number": 6, "name": "CHRISTCHURCH PLACE", "address": "Christchurch Place", "position": {"lat": 53.343368, "lng": -6.27012}, "banking": false, "bonus": false, "status": "OPEN", "contract_name": "Dublin", "bike_stands": 20, "available_bike_stands": 19, "available_bikes": 0, "last_update": 1508225591000}, {"number": 18, "name": "GRANTHAM STREET", "address": "Grantham Street", "position": {"lat": 53.334123, "lng": -6.265436}, "banking": true, "bonus": false, "status": "OPEN", "contract_name": "Dublin", "bike_stands": 30, "available_bike_stands": 30, "available_bikes": 0, "last_update": 1508225522000}, {"number": 52, "name": "YORK STREET EAST", "address": "York Street East", "position": {"lat": 53.338755, "lng": -6.262003}, "banking": false, "bonus": false, "status": "OPEN", "contract_name": "Dublin", "bike_stands": 32, "available_bike_stands": 13, "available_bikes": 19, "last_update": 1508225516000}, {"number": 43, "name": "PORTOBELLO ROAD", "address": "Portobello Road", "position": {"lat": 53.330091, "lng": -6.268044}, "banking": true, "bonus": false, "status": "OPEN", "contract_name": "Dublin", "bike_stands": 30, "available_bike_stands": 30, "available_bikes": 0, "last_update": 1508225269000}, {"number": 31, "name": "PARNELL STREET", "address": "Parnell Street", "position": {"lat": 53.350929, "lng": -6.265125}, "banking": false, "bonus": false, "status": "OPEN", "contract_name": "Dublin", "bike_stands": 20, "available_bike_stands": 20, "available_bikes": 0, "last_update": 1508225282000}, {"number": 98, "name": "FREDERICK STREET SOUTH", "address": "Frederick Street South", "position": {"lat": 53.341515, "lng": -6.256853}, "banking": true, "bonus": false, "status": "OPEN", "contract_name": "Dublin", "bike_stands": 30, "available_bike_stands": 8, "available_bikes": 21, "last_update": 1508225133000}, {"number": 14, "name": "FOWNES STREET UPPER", "address": "Fownes Street Upper", "position": {"lat": 53.344603, "lng": -6.263371}, "banking": false, "bonus": false, "status": "OPEN", "contract_name": "Dublin", "bike_stands": 30, "available_bike_stands": 27, "available_bikes": 3, "last_update": 1508225600000}, {"number": 1, "name": "CLARENDON ROW", "address": "Clarendon Row", "position": {"lat": 53.340927, "lng": -6.262501}, "banking": false, "bonus": false, "status": "OPEN", "contract_name": "Dublin", "bike_stands": 31, "available_bike_stands": 1, "available_bikes": 30, "last_update": 1508225570000}, {"number": 23, "name": "CUSTOM HOUSE", "address": "Custom House", "position": {"lat": 53.348279, "lng": -6.254662}, "banking": true, "bonus": false, "status": "OPEN", "contract_name": "Dublin", "bike_stands": 30, "available_bike_stands": 20, "available_bikes": 9, "last_update": 1508225611000}, {"number": 90, "name": "BENSON STREET", "address": "Benson Street", "position": {"lat": 53.344153, "lng": -6.233451}, "banking": false, "bonus": false, "status": "OPEN", "contract_name": "Dublin", "bike_stands": 40, "available_bike_stands": 0, "available_bikes": 38, "last_update": 1508225608000}, {"number": 63, "name": "FENIAN STREET", "address": "Fenian Street", "position": {"lat": 53.341428, "lng": -6.24672}, "banking": false, "bonus": false, "status": "OPEN", "contract_name": "Dublin", "bike_stands": 35, "available_bike_stands": 8, "available_bikes": 27, "last_update": 1508225617000}, {"number": 91, "name": "SOUTH DOCK ROAD", "address": "South Dock Road", "position": {"lat": 53.341833, "lng": -6.231291}, "banking": false, "bonus": false, "status": "OPEN", "contract_name": "Dublin", "bike_stands": 30, "available_bike_stands": 15, "available_bikes": 15, "last_update": 1508225535000}, {"number": 67, "name": "THE POINT", "address": "The Point", "position": {"lat": 53.346867, "lng": -6.230852}, "banking": true, "bonus": false, "status": "OPEN", "contract_name": "Dublin", "bike_stands": 40, "available_bike_stands": 1, "available_bikes": 38, "last_update": 1508225519000}, {"number": 62, "name": "LIME STREET", "address": "Lime Street", "position": {"lat": 53.346026, "lng": -6.243576}, "banking": false, "bonus": false, "status": "OPEN", "contract_name": "Dublin", "bike_stands": 40, "available_bike_stands": 2, "available_bikes": 38, "last_update": 1508225615000}, {"number": 97, "name": "KILMAINHAM GAOL", "address": "Kilmainham Gaol", "position": {"lat": 53.342113, "lng": -6.310015}, "banking": true, "bonus": false, "status": "OPEN", "contract_name": "Dublin", "bike_stands": 40, "available_bike_stands": 40, "available_bikes": 0, "last_update": 1508225086000}, {"number": 49, "name": "GUILD STREET", "address": "Guild Street", "position": {"lat": 53.347932, "lng": -6.240928}, "banking": false, "bonus": false, "status": "OPEN", "contract_name": "Dublin", "bike_stands": 40, "available_bike_stands": 38, "available_bikes": 1, "last_update": 1508225614000}, {"number": 19, "name": "HERBERT PLACE", "address": "Herbert Place", "position": {"lat": 53.334432, "lng": -6.245575}, "banking": false, "bonus": false, "status": "OPEN", "contract_name": "Dublin", "bike_stands": 30, "available_bike_stands": 16, "available_bikes": 13, "last_update": 1508225608000}, {"number": 102, "name": "WESTERN WAY", "address": "Western Way", "position": {"lat": 53.354929, "lng": -6.269425}, "banking": false, "bonus": false, "status": "OPEN", "contract_name": "Dublin", "bike_stands": 40, "available_bike_stands": 40, "available_bikes": 0, "last_update": 1508225149000}, {"number": 53, "name": "NEWMAN HOUSE", "address": "Newman House", "position": {"lat": 53.337132, "lng": -6.26059}, "banking": false, "bonus": false, "status": "OPEN", "contract_name": "Dublin", "bike_stands": 40, "available_bike_stands": 25, "available_bikes": 15, "last_update": 1508225359000}, {"number": 101, "name": "KING STREET NORTH", "address": "King Street North", "position": {"lat": 53.350291, "lng": -6.273507}, "banking": false, "bonus": false, "status": "OPEN", "contract_name": "Dublin", "bike_stands": 30, "available_bike_stands": 26, "available_bikes": 4, "last_update": 1508225617000}, {"number": 47, "name": "HERBERT STREET", "address": "Herbert Street", "position": {"lat": 53.335742, "lng": -6.24551}, "banking": false, "bonus": false, "status": "OPEN", "contract_name": "Dublin", "bike_stands": 40, "available_bike_stands": 23, "available_bikes": 17, "last_update": 1508225527000}, {"number": 11, "name": "EARLSFORT TERRACE", "address": "Earlsfort Terrace", "position": {"lat": 53.334019, "lng": -6.258371}, "banking": false, "bonus": false, "status": "OPEN", "contract_name": "Dublin", "bike_stands": 30, "available_bike_stands": 0, "available_bikes": 29, "last_update": 1508225596000}, {"number": 17, "name": "GOLDEN LANE", "address": "Golden Lane", "position": {"lat": 53.340803, "lng": -6.267732}, "banking": false, "bonus": false, "status": "OPEN", "contract_name": "Dublin", "bike_stands": 20, "available_bike_stands": 20, "available_bikes": 0, "last_update": 1508225519000}, {"number": 45, "name": "DEVERELL PLACE", "address": "Deverell Place", "position": {"lat": 53.351464, "lng": -6.255265}, "banking": false, "bonus": false, "status": "OPEN", "contract_name": "Dublin", "bike_stands": 30, "available_bike_stands": 30, "available_bikes": 0, "last_update": 1508225370000}, {"number": 72, "name": "JOHN STREET WEST", "address": "John Street West", "position": {"lat": 53.343105, "lng": -6.277167}, "banking": false, "bonus": false, "status": "OPEN", "contract_name": "Dublin", "bike_stands": 31, "available_bike_stands": 31, "available_bikes": 0, "last_update": 1508225434000}, {"number": 99, "name": "CITY QUAY", "address": "City Quay", "position": {"lat": 53.346637, "lng": -6.246154}, "banking": false, "bonus": false, "status": "OPEN", "contract_name": "Dublin", "bike_stands": 30, "available_bike_stands": 16, "available_bikes": 14, "last_update": 1508225393000}, {"number": 9, "name": "EXCHEQUER STREET", "address": "Exchequer Street", "position": {"lat": 53.343034, "lng": -6.263578}, "banking": false, "bonus": false, "status": "OPEN", "contract_name": "Dublin", "bike_stands": 24, "available_bike_stands": 5, "available_bikes": 18, "last_update": 1508225580000}, {"number": 55, "name": "HATCH STREET", "address": "Hatch Street", "position": {"lat": 53.33403, "lng": -6.260714}, "banking": false, "bonus": false, "status": "OPEN", "contract_name": "Dublin", "bike_stands": 36, "available_bike_stands": 0, "available_bikes": 36, "last_update": 1508225585000}, {"number": 5, "name": "CHARLEMONT PLACE", "address": "Charlemont Street", "position": {"lat": 53.330662, "lng": -6.260177}, "banking": false, "bonus": false, "status": "OPEN", "contract_name": "Dublin", "bike_stands": 40, "available_bike_stands": 38, "available_bikes": 1, "last_update": 1508225578000}, {"number": 61, "name": "HARDWICKE PLACE", "address": "Hardwicke Place", "position": {"lat": 53.357043, "lng": -6.263232}, "banking": true, "bonus": false, "status": "OPEN", "contract_name": "Dublin", "bike_stands": 25, "available_bike_stands": 25, "available_bikes": 0, "last_update": 1508225403000}, {"number": 77, "name": "WOLFE TONE STREET", "address": "Wolfe Tone Street", "position": {"lat": 53.348875, "lng": -6.267459}, "banking": false, "bonus": false, "status": "OPEN", "contract_name": "Dublin", "bike_stands": 29, "available_bike_stands": 18, "available_bikes": 11, "last_update": 1508225580000}, {"number": 73, "name": "FRANCIS STREET", "address": "Francis Street", "position": {"lat": 53.342081, "lng": -6.275233}, "banking": true, "bonus": false, "status": "OPEN", "contract_name": "Dublin", "bike_stands": 30, "available_bike_stands": 28, "available_bikes": 2, "last_update": 1508225593000}, {"number": 4, "name": "GREEK STREET", "address": "Greek Street", "position": {"lat": 53.346874, "lng": -6.272976}, "banking": false, "bonus": false, "status": "OPEN", "contract_name": "Dublin", "bike_stands": 20, "available_bike_stands": 20, "available_bikes": 0, "last_update": 1508225606000}, {"number": 7, "name": "HIGH STREET", "address": "High Street", "position": {"lat": 53.343565, "lng": -6.275071}, "banking": true, "bonus": false, "status": "OPEN", "contract_name": "Dublin", "bike_stands": 29, "available_bike_stands": 26, "available_bikes": 3, "last_update": 1508225360000}, {"number": 60, "name": "NORTH CIRCULAR ROAD", "address": "North Circular Road", "position": {"lat": 53.359624, "lng": -6.260348}, "banking": true, "bonus": false, "status": "OPEN", "contract_name": "Dublin", "bike_stands": 30, "available_bike_stands": 20, "available_bikes": 10, "last_update": 1508225604000}, {"number": 38, "name": "TALBOT STREET", "address": "Talbot Street", "position": {"lat": 53.350974, "lng": -6.25294}, "banking": false, "bonus": false, "status": "OPEN", "contract_name": "Dublin", "bike_stands": 40, "available_bike_stands": 35, "available_bikes": 4, "last_update": 1508225608000}, {"number": 58, "name": "SIR PATRICK DUN'S", "address": "Sir Patrick's Dun", "position": {"lat": 53.339218, "lng": -6.240642}, "banking": true, "bonus": false, "status": "OPEN", "contract_name": "Dublin", "bike_stands": 40, "available_bike_stands": 7, "available_bikes": 33, "last_update": 1508225578000}, {"number": 66, "name": "NEW CENTRAL BANK", "address": "New Central Bank", "position": {"lat": 53.347122, "lng": -6.234749}, "banking": false, "bonus": false, "status": "OPEN", "contract_name": "Dublin", "bike_stands": 40, "available_bike_stands": 5, "available_bikes": 34, "last_update": 1508225611000}, {"number": 16, "name": "GEORGES QUAY", "address": "Georges Quay", "position": {"lat": 53.347508, "lng": -6.252192}, "banking": false, "bonus": false, "status": "OPEN", "contract_name": "Dublin", "bike_stands": 20, "available_bike_stands": 12, "available_bikes": 8, "last_update": 1508225605000}, {"number": 82, "name": "MOUNT BROWN", "address": "Mount Brown", "position": {"lat": 53.341645, "lng": -6.29719}, "banking": false, "bonus": false, "status": "OPEN", "contract_name": "Dublin", "bike_stands": 22, "available_bike_stands": 22, "available_bikes": 0, "last_update": 1508225512000}, {"number": 95, "name": "ROYAL HOSPITAL", "address": "Royal Hospital", "position": {"lat": 53.343897, "lng": -6.29706}, "banking": true, "bonus": false, "status": "OPEN", "contract_name": "Dublin", "bike_stands": 40, "available_bike_stands": 40, "available_bikes": 0, "last_update": 1508225511000}, {"number": 93, "name": "HEUSTON STATION (CENTRAL)", "address": "Heuston Station (Central)", "position": {"lat": 53.346603, "lng": -6.296924}, "banking": false, "bonus": false, "status": "OPEN", "contract_name": "Dublin", "bike_stands": 40, "available_bike_stands": 31, "available_bikes": 9, "last_update": 1508225611000}, {"number": 22, "name": "TOWNSEND STREET", "address": "Townsend Street", "position": {"lat": 53.345922, "lng": -6.254614}, "banking": false, "bonus": false, "status": "OPEN", "contract_name": "Dublin", "bike_stands": 20, "available_bike_stands": 18, "available_bikes": 2, "last_update": 1508225514000}, {"number": 34, "name": "PORTOBELLO HARBOUR", "address": "Portobello Harbour", "position": {"lat": 53.330362, "lng": -6.265163}, "banking": false, "bonus": false, "status": "OPEN", "contract_name": "Dublin", "bike_stands": 30, "available_bike_stands": 30, "available_bikes": 0, "last_update": 1508225553000}, {"number": 8, "name": "CUSTOM HOUSE QUAY", "address": "Custom House Quay", "position": {"lat": 53.347884, "lng": -6.248048}, "banking": false, "bonus": false, "status": "OPEN", "contract_name": "Dublin", "bike_stands": 30, "available_bike_stands": 1, "available_bikes": 28, "last_update": 1508225614000}, {"number": 27, "name": "MOLESWORTH STREET", "address": "Molesworth Street", "position": {"lat": 53.341288, "lng": -6.258117}, "banking": false, "bonus": false, "status": "OPEN", "contract_name": "Dublin", "bike_stands": 20, "available_bike_stands": 9, "available_bikes": 11, "last_update": 1508225118000}, {"number": 96, "name": "KILMAINHAM LANE", "address": "Kilmainham Lane", "position": {"lat": 53.341805, "lng": -6.305085}, "banking": false, "bonus": false, "status": "OPEN", "contract_name": "Dublin", "bike_stands": 30, "available_bike_stands": 30, "available_bikes": 0, "last_update": 1508225308000}, {"number": 76, "name": "MARKET STREET SOUTH", "address": "Market Street South", "position": {"lat": 53.342296, "lng": -6.287661}, "banking": false, "bonus": false, "status": "OPEN", "contract_name": "Dublin", "bike_stands": 38, "available_bike_stands": 38, "available_bikes": 0, "last_update": 1508225243000}, {"number": 71, "name": "KEVIN STREET", "address": "Kevin Street", "position": {"lat": 53.337757, "lng": -6.267699}, "banking": true, "bonus": false, "status": "OPEN", "contract_name": "Dublin", "bike_stands": 40, "available_bike_stands": 31, "available_bikes": 8, "last_update": 1508225609000}, {"number": 79, "name": "ECCLES STREET EAST", "address": "Eccles Street East", "position": {"lat": 53.358115, "lng": -6.265601}, "banking": false, "bonus": false, "status": "OPEN", "contract_name": "Dublin", "bike_stands": 27, "available_bike_stands": 27, "available_bikes": 0, "last_update": 1508225392000}, {"number": 69, "name": "GRAND CANAL DOCK", "address": "Grand Canal Dock", "position": {"lat": 53.342638, "lng": -6.238695}, "banking": false, "bonus": false, "status": "OPEN", "contract_name": "Dublin", "bike_stands": 40, "available_bike_stands": 0, "available_bikes": 39, "last_update": 1508225547000}, {"number": 25, "name": "MERRION SQUARE EAST", "address": "Merrion Square East", "position": {"lat": 53.339434, "lng": -6.246548}, "banking": false, "bonus": false, "status": "OPEN", "contract_name": "Dublin", "bike_stands": 30, "available_bike_stands": 11, "available_bikes": 18, "last_update": 1508225604000}, {"number": 51, "name": "YORK STREET WEST", "address": "York Street West", "position": {"lat": 53.339334, "lng": -6.264699}, "banking": false, "bonus": false, "status": "OPEN", "contract_name": "Dublin", "bike_stands": 40, "available_bike_stands": 15, "available_bikes": 25, "last_update": 1508225597000}, {"number": 37, "name": "ST. STEPHEN'S GREEN SOUTH", "address": "St. Stephen's Green South", "position": {"lat": 53.337494, "lng": -6.26199}, "banking": true, "bonus": false, "status": "OPEN", "contract_name": "Dublin", "bike_stands": 30, "available_bike_stands": 9, "available_bikes": 20, "last_update": 1508225404000}, {"number": 59, "name": "DENMARK STREET GREAT", "address": "Denmark Street Great", "position": {"lat": 53.35561, "lng": -6.261397}, "banking": false, "bonus": false, "status": "OPEN", "contract_name": "Dublin", "bike_stands": 20, "available_bike_stands": 20, "available_bikes": 0, "last_update": 1508225187000}, {"number": 94, "name": "HEUSTON STATION (CAR PARK)", "address": "Heuston Station (Car Park)", "position": {"lat": 53.346985, "lng": -6.297804}, "banking": false, "bonus": false, "status": "OPEN", "contract_name": "Dublin", "bike_stands": 40, "available_bike_stands": 6, "available_bikes": 34, "last_update": 1508225161000}, {"number": 36, "name": "ST. STEPHEN'S GREEN EAST", "address": "St. Stephen's Green East", "position": {"lat": 53.337824, "lng": -6.256035}, "banking": true, "bonus": false, "status": "OPEN", "contract_name": "Dublin", "bike_stands": 40, "available_bike_stands": 1, "available_bikes": 39, "last_update": 1508225597000}, {"number": 12, "name": "ECCLES STREET", "address": "Eccles Street", "position": {"lat": 53.359246, "lng": -6.269779}, "banking": false, "bonus": false, "status": "OPEN", "contract_name": "Dublin", "bike_stands": 20, "available_bike_stands": 20, "available_bikes": 0, "last_update": 1508225599000}, {"number": 78, "name": "MATER HOSPITAL", "address": "Mater Hospital", "position": {"lat": 53.359967, "lng": -6.264828}, "banking": false, "bonus": false, "status": "OPEN", "contract_name": "Dublin", "bike_stands": 40, "available_bike_stands": 40, "available_bikes": 0, "last_update": 1508225459000}, {"number": 2, "name": "BLESSINGTON STREET", "address": "Blessington Street", "position": {"lat": 53.356769, "lng": -6.26814}, "banking": true, "bonus": false, "status": "OPEN", "contract_name": "Dublin", "bike_stands": 20, "available_bike_stands": 20, "available_bikes": 0, "last_update": 1508225347000}, {"number": 26, "name": "MERRION SQUARE WEST", "address": "Merrion Square West", "position": {"lat": 53.339764, "lng": -6.251988}, "banking": true, "bonus": false, "status": "OPEN", "contract_name": "Dublin", "bike_stands": 20, "available_bike_stands": 3, "available_bikes": 17, "last_update": 1508225554000}, {"number": 65, "name": "CONVENTION CENTRE", "address": "Convention Centre", "position": {"lat": 53.34744, "lng": -6.238523}, "banking": true, "bonus": false, "status": "OPEN", "contract_name": "Dublin", "bike_stands": 40, "available_bike_stands": 40, "available_bikes": 0, "last_update": 1508225607000}, {"number": 15, "name": "HARDWICKE STREET", "address": "Hardwicke Street", "position": {"lat": 53.355473, "lng": -6.264423}, "banking": false, "bonus": false, "status": "OPEN", "contract_name": "Dublin", "bike_stands": 16, "available_bike_stands": 16, "available_bikes": 0, "last_update": 1508225599000}, {"number": 35, "name": "SMITHFIELD", "address": "Smithfield", "position": {"lat": 53.347692, "lng": -6.278214}, "banking": false, "bonus": false, "status": "OPEN", "contract_name": "Dublin", "bike_stands": 30, "available_bike_stands": 30, "available_bikes": 0, "last_update": 1508225552000}, {"number": 10, "name": "DAME STREET", "address": "Dame Street", "position": {"lat": 53.344007, "lng": -6.266802}, "banking": true, "bonus": false, "status": "OPEN", "contract_name": "Dublin", "bike_stands": 16, "available_bike_stands": 1, "available_bikes": 14, "last_update": 1508225609000}, {"number": 64, "name": "SANDWITH STREET", "address": "Sandwith Street", "position": {"lat": 53.345203, "lng": -6.247163}, "banking": true, "bonus": false, "status": "OPEN", "contract_name": "Dublin", "bike_stands": 40, "available_bike_stands": 29, "available_bikes": 11, "last_update": 1508225587000}, {"number": 33, "name": "PRINCES STREET / O'CONNELL STREET", "address": "Princes Street / O'Connell Street", "position": {"lat": 53.349013, "lng": -6.260311}, "banking": true, "bonus": false, "status": "OPEN", "contract_name": "Dublin", "bike_stands": 23, "available_bike_stands": 17, "available_bikes": 6, "last_update": 1508225549000}, {"number": 57, "name": "GRATTAN STREET", "address": "Grattan Street", "position": {"lat": 53.339629, "lng": -6.243778}, "banking": false, "bonus": false, "status": "OPEN", "contract_name": "Dublin", "bike_stands": 23, "available_bike_stands": 12, "available_bikes": 11, "last_update": 1508225473000}, {"number": 80, "name": "ST JAMES HOSPITAL (LUAS)", "address": "St James Hospital (Luas)", "position": {"lat": 53.341359, "lng": -6.292951}, "banking": false, "bonus": false, "status": "OPEN", "contract_name": "Dublin", "bike_stands": 40, "available_bike_stands": 40, "available_bikes": 0, "last_update": 1508225605000}, {"number": 3, "name": "BOLTON STREET", "address": "Bolton Street", "position": {"lat": 53.351182, "lng": -6.269859}, "banking": false, "bonus": false, "status": "OPEN", "contract_name": "Dublin", "bike_stands": 20, "available_bike_stands": 15, "available_bikes": 5, "last_update": 1508225481000}, {"number": 46, "name": "STRAND STREET GREAT", "address": "Strand Street Great", "position": {"lat": 53.347082, "lng": -6.264192}, "banking": true, "bonus": false, "status": "OPEN", "contract_name": "Dublin", "bike_stands": 35, "available_bike_stands": 5, "available_bikes": 30, "last_update": 1508225597000}, {"number": 70, "name": "BARROW STREET", "address": "Barrow Street", "position": {"lat": 53.341655, "lng": -6.236198}, "banking": true, "bonus": false, "status": "OPEN", "contract_name": "Dublin", "bike_stands": 40, "available_bike_stands": 10, "available_bikes": 29, "last_update": 1508225611000}, {"number": 28, "name": "MOUNTJOY SQUARE WEST", "address": "Mountjoy Square West", "position": {"lat": 53.356299, "lng": -6.258586}, "banking": false, "bonus": false, "status": "OPEN", "contract_name": "Dublin", "bike_stands": 30, "available_bike_stands": 30, "available_bikes": 0, "last_update": 1508225609000}, {"number": 39, "name": "WILTON TERRACE", "address": "Wilton Terrace", "position": {"lat": 53.332383, "lng": -6.252717}, "banking": true, "bonus": false, "status": "OPEN", "contract_name": "Dublin", "bike_stands": 20, "available_bike_stands": 19, "available_bikes": 1, "last_update": 1508225616000}, {"number": 21, "name": "LEINSTER STREET SOUTH", "address": "Leinster Street South", "position": {"lat": 53.34218, "lng": -6.254485}, "banking": false, "bonus": false, "status": "OPEN", "contract_name": "Dublin", "bike_stands": 30, "available_bike_stands": 10, "available_bikes": 20, "last_update": 1508225460000}, {"number": 75, "name": "JAMES STREET", "address": "James Street", "position": {"lat": 53.343456, "lng": -6.287409}, "banking": true, "bonus": false, "status": "OPEN", "contract_name": "Dublin", "bike_stands": 40, "available_bike_stands": 40, "available_bikes": 0, "last_update": 1508225572000}, {"number": 86, "name": "PARKGATE STREET", "address": "Parkgate Street", "position": {"lat": 53.347972, "lng": -6.291804}, "banking": true, "bonus": false, "status": "OPEN", "contract_name": "Dublin", "bike_stands": 38, "available_bike_stands": 38, "available_bikes": 0, "last_update": 1508225193000}, {"number": 100, "name": "HEUSTON BRIDGE (SOUTH)", "address": "Heuston Bridge (South)", "position": {"lat": 53.347106, "lng": -6.292041}, "banking": false, "bonus": false, "status": "OPEN", "contract_name": "Dublin", "bike_stands": 25, "available_bike_stands": 25, "available_bikes": 0, "last_update": 1508225423000}, {"number": 24, "name": "CATHAL BRUGHA STREET", "address": "Cathal Brugha Street", "position": {"lat": 53.352149, "lng": -6.260533}, "banking": false, "bonus": false, "status": "OPEN", "contract_name": "Dublin", "bike_stands": 20, "available_bike_stands": 20, "available_bikes": 0, "last_update": 1508225422000}, {"number": 85, "name": "ROTHE ABBEY", "address": "Rothe Abbey", "position": {"lat": 53.338776, "lng": -6.30395}, "banking": true, "bonus": false, "status": "OPEN", "contract_name": "Dublin", "bike_stands": 35, "available_bike_stands": 35, "available_bikes": 0, "last_update": 1508225237000}, {"number": 44, "name": "UPPER SHERRARD STREET", "address": "Upper Sherrard Street", "position": {"lat": 53.358437, "lng": -6.260641}, "banking": false, "bonus": false, "status": "OPEN", "contract_name": "Dublin", "bike_stands": 30, "available_bike_stands": 30, "available_bikes": 0, "last_update": 1508225599000}, {"number": 89, "name": "FITZWILLIAM SQUARE EAST", "address": "Fitzwilliam Square East", "position": {"lat": 53.335211, "lng": -6.2509}, "banking": true, "bonus": false, "status": "OPEN", "contract_name": "Dublin", "bike_stands": 40, "available_bike_stands": 20, "available_bikes": 19, "last_update": 1508225579000}, {"number": 41, "name": "HARCOURT TERRACE", "address": "Harcourt Terrace", "position": {"lat": 53.332763, "lng": -6.257942}, "banking": false, "bonus": false, "status": "OPEN", "contract_name": "Dublin", "bike_stands": 20, "available_bike_stands": 10, "available_bikes": 10, "last_update": 1508225539000}, {"number": 40, "name": "JERVIS STREET", "address": "Jervis Street", "position": {"lat": 53.3483, "lng": -6.266651}, "banking": true, "bonus": false, "status": "OPEN", "contract_name": "Dublin", "bike_stands": 21, "available_bike_stands": 15, "available_bikes": 6, "last_update": 1508225608000}, {"number": 29, "name": "ORMOND QUAY UPPER", "address": "Ormond Quay Upper", "position": {"lat": 53.346057, "lng": -6.268001}, "banking": true, "bonus": false, "status": "OPEN", "contract_name": "Dublin", "bike_stands": 29, "available_bike_stands": 28, "available_bikes": 1, "last_update": 1508225600000}, {"number": 83, "name": "EMMET ROAD", "address": "Emmet Road", "position": {"lat": 53.340714, "lng": -6.308191}, "banking": false, "bonus": false, "status": "OPEN", "contract_name": "Dublin", "bike_stands": 40, "available_bike_stands": 40, "available_bikes": 0, "last_update": 1508225599000}, {"number": 92, "name": "HEUSTON BRIDGE (NORTH)", "address": "Heuston Bridge (North)", "position": {"lat": 53.347802, "lng": -6.292432}, "banking": false, "bonus": false, "status": "OPEN", "contract_name": "Dublin", "bike_stands": 40, "available_bike_stands": 40, "available_bikes": 0, "last_update": 1508225531000}, {"number": 88, "name": "BLACKHALL PLACE", "address": "Blackhall Place", "position": {"lat": 53.3488, "lng": -6.281637}, "banking": false, "bonus": false, "status": "OPEN", "contract_name": "Dublin", "bike_stands": 30, "available_bike_stands": 28, "available_bikes": 1, "last_update": 1508225616000}]], ["20171017 09:03:55", [{"number": 42, "name": "SMITHFIELD NORTH", "address": "Smithfield North", "position": {"lat": 53.349562, "lng": -6.278198}, "banking": true, "bonus": false, "status": "OPEN", "contract_name": "Dublin", "bike_stands": 30, "available_bike_stands": 30, "available_bikes": 0, "last_update": 1508227115000}, {"number": 30, "name": "PARNELL SQUARE NORTH", "address": "Parnell Square North", "position": {"lat": 53.353462, "lng": -6.265305}, "banking": true, "bonus": false, "status": "OPEN", "contract_name": "Dublin", "bike_stands": 20, "available_bike_stands": 20, "available_bikes": 0, "last_update": 1508227168000}, {"number": 32, "name": "PEARSE STREET", "address": "Pearse Street", "position": {"lat": 53.344304, "lng": -6.250427}, "banking": true, "bonus": false, "status": "OPEN", "contract_name": "Dublin", "bike_stands": 30, "available_bike_stands": 16, "available_bikes": 14, "last_update": 1508227400000}, {"number": 48, "name": "EXCISE WALK", "address": "Excise Walk", "position": {"lat": 53.347777, "lng": -6.244239}, "banking": false, "bonus": false, "status": "OPEN", "contract_name": "Dublin", "bike_stands": 40, "available_bike_stands": 16, "available_bikes": 23, "last_update": 1508227408000}, {"number": 13, "name": "FITZWILLIAM SQUARE WEST", "address": "Fitzwilliam Square West", "position": {"lat": 53.336074, "lng": -6.252825}, "banking": false, "bonus": false, "status": "OPEN", "contract_name": "Dublin", "bike_stands": 30, "available_bike_stands": 11, "available_bikes": 19, "last_update": 1508227287000}, {"number": 81, "name": "ST. JAMES HOSPITAL (CENTRAL)", "address": "St. James Hospital (Central)", "position": {"lat": 53.339983, "lng": -6.295594}, "banking": false, "bonus": false, "status": "OPEN", "contract_name": "Dublin", "bike_stands": 40, "available_bike_stands": 40, "available_bikes": 0, "last_update": 1508227050000}, {"number": 68, "name": "HANOVER QUAY", "address": "Hanover Quay", "position": {"lat": 53.344115, "lng": -6.237153}, "banking": true, "bonus": false, "status": "OPEN", "contract_name": "Dublin", "bike_stands": 40, "available_bike_stands": 0, "available_bikes": 39, "last_update": 1508227277000}, {"number": 74, "name": "OLIVER BOND STREET", "address": "Oliver Bond Street", "position": {"lat": 53.343893, "lng": -6.280531}, "banking": false, "bonus": false, "status": "OPEN", "contract_name": "Dublin", "bike_stands": 30, "available_bike_stands": 28, "available_bikes": 2, "last_update": 1508227416000}, {"number": 87, "name": "COLLINS BARRACKS MUSEUM", "address": "Collins Barracks Museum", "position": {"lat": 53.347477, "lng": -6.28525}, "banking": true, "bonus": false, "status": "OPEN", "contract_name": "Dublin", "bike_stands": 38, "available_bike_stands": 38, "available_bikes": 0, "last_update": 1508226881000}, {"number": 84, "name": "BROOKFIELD ROAD", "address": "Brookfield Road", "position": {"lat": 53.339005, "lng": -6.300217}, "banking": false, "bonus": false, "status": "OPEN", "contract_name": "Dublin", "bike_stands": 30, "available_bike_stands": 30, "available_bikes": 0, "last_update": 1508227413000}, {"number": 54, "name": "CLONMEL STREET", "address": "Clonmel Street", "position": {"lat": 53.336021, "lng": -6.26298}, "banking": false, "bonus": false, "status": "OPEN", "contract_name": "Dublin", "bike_stands": 33, "available_bike_stands": 0, "available_bikes": 31, "last_update": 1508227395000}, {"number": 56, "name": "MOUNT STREET LOWER", "address": "Mount Street Lower", "position": {"lat": 53.33796, "lng": -6.24153}, "banking": false, "bonus": false, "status": "OPEN", "contract_name": "Dublin", "bike_stands": 40, "available_bike_stands": 15, "available_bikes": 24, "last_update": 1508227403000}, {"number": 6, "name": "CHRISTCHURCH PLACE", "address": "Christchurch Place", "position": {"lat": 53.343368, "lng": -6.27012}, "banking": false, "bonus": false, "status": "OPEN", "contract_name": "Dublin", "bike_stands": 20, "available_bike_stands": 20, "available_bikes": 0, "last_update": 1508227237000}, {"number": 18, "name": "GRANTHAM STREET", "address": "Grantham Street", "position": {"lat": 53.334123, "lng": -6.265436}, "banking": true, "bonus": false, "status": "OPEN", "contract_name": "Dublin", "bike_stands": 30, "available_bike_stands": 29, "available_bikes": 1, "last_update": 1508227412000}, {"number": 52, "name": "YORK STREET EAST", "address": "York Street East", "position": {"lat": 53.338755, "lng": -6.262003}, "banking": false, "bonus": false, "status": "OPEN", "contract_name": "Dublin", "bike_stands": 32, "available_bike_stands": 11, "available_bikes": 21, "last_update": 1508227357000}, {"number": 43, "name": "PORTOBELLO ROAD", "address": "Portobello Road", "position": {"lat": 53.330091, "lng": -6.268044}, "banking": true, "bonus": false, "status": "OPEN", "contract_name": "Dublin", "bike_stands": 30, "available_bike_stands": 30, "available_bikes": 0, "last_update": 1508227386000}, {"number": 31, "name": "PARNELL STREET", "address": "Parnell Street", "position": {"lat": 53.350929, "lng": -6.265125}, "banking": false, "bonus": false, "status": "OPEN", "contract_name": "Dublin", "bike_stands": 20, "available_bike_stands": 17, "available_bikes": 3, "last_update": 1508227337000}, {"number": 98, "name": "FREDERICK STREET SOUTH", "address": "Frederick Street South", "position": {"lat": 53.341515, "lng": -6.256853}, "banking": true, "bonus": false, "status": "OPEN", "contract_name": "Dublin", "bike_stands": 30, "available_bike_stands": 6, "available_bikes": 23, "last_update": 1508227148000}, {"number": 14, "name": "FOWNES STREET UPPER", "address": "Fownes Street Upper", "position": {"lat": 53.344603, "lng": -6.263371}, "banking": false, "bonus": false, "status": "OPEN", "contract_name": "Dublin", "bike_stands": 30, "available_bike_stands": 24, "available_bikes": 6, "last_update": 1508227409000}, {"number": 1, "name": "CLARENDON ROW", "address": "Clarendon Row", "position": {"lat": 53.340927, "lng": -6.262501}, "banking": false, "bonus": false, "status": "OPEN", "contract_name": "Dublin", "bike_stands": 31, "available_bike_stands": 3, "available_bikes": 28, "last_update": 1508227258000}, {"number": 23, "name": "CUSTOM HOUSE", "address": "Custom House", "position": {"lat": 53.348279, "lng": -6.254662}, "banking": true, "bonus": false, "status": "OPEN", "contract_name": "Dublin", "bike_stands": 30, "available_bike_stands": 25, "available_bikes": 4, "last_update": 1508227412000}, {"number": 90, "name": "BENSON STREET", "address": "Benson Street", "position": {"lat": 53.344153, "lng": -6.233451}, "banking": false, "bonus": false, "status": "OPEN", "contract_name": "Dublin", "bike_stands": 40, "available_bike_stands": 0, "available_bikes": 39, "last_update": 1508227308000}, {"number": 63, "name": "FENIAN STREET", "address": "Fenian Street", "position": {"lat": 53.341428, "lng": -6.24672}, "banking": false, "bonus": false, "status": "OPEN", "contract_name": "Dublin", "bike_stands": 35, "available_bike_stands": 0, "available_bikes": 34, "last_update": 1508227329000}, {"number": 91, "name": "SOUTH DOCK ROAD", "address": "South Dock Road", "position": {"lat": 53.341833, "lng": -6.231291}, "banking": false, "bonus": false, "status": "OPEN", "contract_name": "Dublin", "bike_stands": 30, "available_bike_stands": 8, "available_bikes": 22, "last_update": 1508227402000}, {"number": 67, "name": "THE POINT", "address": "The Point", "position": {"lat": 53.346867, "lng": -6.230852}, "banking": true, "bonus": false, "status": "OPEN", "contract_name": "Dublin", "bike_stands": 40, "available_bike_stands": 4, "available_bikes": 35, "last_update": 1508227214000}, {"number": 62, "name": "LIME STREET", "address": "Lime Street", "position": {"lat": 53.346026, "lng": -6.243576}, "banking": false, "bonus": false, "status": "OPEN", "contract_name": "Dublin", "bike_stands": 40, "available_bike_stands": 14, "available_bikes": 26, "last_update": 1508227357000}, {"number": 97, "name": "KILMAINHAM GAOL", "address": "Kilmainham Gaol", "position": {"lat": 53.342113, "lng": -6.310015}, "banking": true, "bonus": false, "status": "OPEN", "contract_name": "Dublin", "bike_stands": 40, "available_bike_stands": 40, "available_bikes": 0, "last_update": 1508227319000}, {"number": 49, "name": "GUILD STREET", "address": "Guild Street", "position": {"lat": 53.347932, "lng": -6.240928}, "banking": false, "bonus": false, "status": "OPEN", "contract_name": "Dublin", "bike_stands": 40, "available_bike_stands": 38, "available_bikes": 1, "last_update": 1508227415000}, {"number": 19, "name": "HERBERT PLACE", "address": "Herbert Place", "position": {"lat": 53.334432, "lng": -6.245575},